<?xml version="1.0" encoding="utf-8" ?>
<Trains>
<Train><TrainRecord><Provider>IndianRailways</Provider><TrainName>TEN MS SUVIDHA</TrainName><TrainNumber>00625</TrainNumber><TrainScheduleItem><serialNumber>1</serialNumber><stationCode>ten</stationCode><stationName>TIRUNELVELI</stationName><arrivalTime>Source</arrivalTime><departureTime>14:45</departureTime><day>1</day><halt /><distance>0</distance><latitude>8.737018</latitude><longitude>77.707792</longitude><isHalting>true</isHalting></TrainScheduleItem><TrainScheduleItem><serialNumber>2</serialNumber><stationCode>mej</stationCode><stationName>VANCHIMANIYACHI</stationName><arrivalTime>15:10</arrivalTime><departureTime>15:11</departureTime><day>1</day><halt>1</halt><distance>29</distance><latitude>8.881867</latitude><longitude>77.890974</longitude><isHalting>true</isHalting></TrainScheduleItem><TrainScheduleItem><serialNumber>3</serialNumber><stationCode>cvp</stationCode><stationName>KOVILPATTI</stationName><arrivalTime>15:43</arrivalTime><departureTime>15:45</departureTime><day>1</day><halt>2</halt><distance>66</distance><latitude>9.182729721</latitude><longitude>77.87358856</longitude><isHalting>true</isHalting></TrainScheduleItem><TrainScheduleItem><serialNumber>4</serialNumber><stationCode>srt</stationCode><stationName>SATUR</stationName><arrivalTime>16:03</arrivalTime><departureTime>16:05</departureTime><day>1</day><halt>2</halt><distance>87</distance><latitude>9.358424</latitude><longitude>77.921836</longitude><isHalting>true</isHalting></TrainScheduleItem><TrainScheduleItem><serialNumber>5</serialNumber><stationCode>vpt</stationCode><stationName>VIRUDUNAGAR JN</stationName><arrivalTime>16:23</arrivalTime><departureTime>16:25</departureTime><day>1</day><halt>2</halt><distance>114</distance><latitude>9.594369888</latitude><longitude>77.95722961</longitude><isHalting>true</isHalting></TrainScheduleItem><TrainScheduleItem><serialNumber>6</serialNumber><stationCode>mdu</stationCode><stationName>MADURAI JN</stationName><arrivalTime>17:25</arrivalTime><departureTime>17:30</departureTime><day>1</day><halt>5</halt><distance>157</distance><latitude>9.92051</latitude><longitude>78.110512</longitude><isHalting>true</isHalting></TrainScheduleItem><TrainScheduleItem><serialNumber>7</serialNumber><stationCode>kqn</stationCode><stationName>KODAIKANAL ROAD</stationName><arrivalTime>18:00</arrivalTime><departureTime>18:02</departureTime><day>1</day><halt>2</halt><distance>197</distance><latitude>10.178682</latitude><longitude>77.9103</longitude><isHalting>true</isHalting></TrainScheduleItem><TrainScheduleItem><serialNumber>8</serialNumber><stationCode>dg</stationCode><stationName>DINDIGUL JN</stationName><arrivalTime>18:35</arrivalTime><departureTime>18:40</departureTime><day>1</day><halt>5</halt><distance>223</distance><latitude>9.91971</latitude><longitude>78.10901</longitude><isHalting>true</isHalting></TrainScheduleItem><TrainScheduleItem><serialNumber>9</serialNumber><stationCode>tpj</stationCode><stationName>TIRUCHCHIRAPALI</stationName><arrivalTime>20:45</arrivalTime><departureTime>21:00</departureTime><day>1</day><halt>15</halt><distance>317</distance><latitude>10.794469</latitude><longitude>78.686801</longitude><isHalting>true</isHalting></TrainScheduleItem><TrainScheduleItem><serialNumber>10</serialNumber><stationCode>vri</stationCode><stationName>VRIDHACHALAM JN</stationName><arrivalTime>22:48</arrivalTime><departureTime>22:50</departureTime><day>1</day><halt>2</halt><distance>440</distance><latitude>11.52008</latitude><longitude>79.311377</longitude><isHalting>true</isHalting></TrainScheduleItem><TrainScheduleItem><serialNumber>11</serialNumber><stationCode>vm</stationCode><stationName>VILLUPURAM JN</stationName><arrivalTime>00:45</arrivalTime><departureTime>00:55</departureTime><day>2</day><halt>10</halt><distance>495</distance><latitude>11.941633</latitude><longitude>79.499557</longitude><isHalting>true</isHalting></TrainScheduleItem><TrainScheduleItem><serialNumber>12</serialNumber><stationCode>cgl</stationCode><stationName>CHENGALPATTU</stationName><arrivalTime>02:55</arrivalTime><departureTime>03:00</departureTime><day>2</day><halt>5</halt><distance>598</distance><latitude>12.69333</latitude><longitude>79.970757</longitude><isHalting>true</isHalting></TrainScheduleItem><TrainScheduleItem><serialNumber>13</serialNumber><stationCode>tbm</stationCode><stationName>TAMBARAM</stationName><arrivalTime>03:28</arrivalTime><departureTime>03:30</departureTime><day>2</day><halt>2</halt><distance>628</distance><latitude>12.92594</latitude><longitude>80.11789</longitude><isHalting>true</isHalting></TrainScheduleItem><TrainScheduleItem><serialNumber>14</serialNumber><stationCode>mbm</stationCode><stationName>MAMBALAM</stationName><arrivalTime>03:48</arrivalTime><departureTime>03:50</departureTime><day>2</day><halt>2</halt><distance>646</distance><latitude>13.03736973</latitude><longitude>80.22734833</longitude><isHalting>true</isHalting></TrainScheduleItem><TrainScheduleItem><serialNumber>15</serialNumber><stationCode>ms</stationCode><stationName>CHENNAI EGMORE</stationName><arrivalTime>04:20</arrivalTime><departureTime>Destination</departureTime><day>2</day><halt /><distance>653</distance><latitude>13.07747</latitude><longitude>80.26136</longitude><isHalting>true</isHalting></TrainScheduleItem></TrainRecord>	<TrainDetails><Provider>IndianRailways</Provider><TrainName>TEN MS SUVIDHA</TrainName><TrainNumber>00625</TrainNumber><TrainAttributes><isPantryAvailable>false</isPantryAvailable><isCateringAvailable>false</isCateringAvailable><hasPrepaidTaxiService>false</hasPrepaidTaxiService><hasPrepaidAutoService>false</hasPrepaidAutoService><ClassesAvailable /><RakeShareTrainNumbers /><DaysRunning><Day>Sunday</Day></DaysRunning><CoachComposition /></TrainAttributes></TrainDetails></Train>
<Train><TrainRecord><Provider>IndianRailways</Provider><TrainName>ERS MAS SUVIDHA</TrainName><TrainNumber>00626</TrainNumber><TrainScheduleItem><serialNumber>1</serialNumber><stationCode>ers</stationCode><stationName>ERNAKULAM JN</stationName><arrivalTime>Source</arrivalTime><departureTime>19:00</departureTime><day>1</day><halt /><distance>0</distance><latitude>9.968846</latitude><longitude>76.291545</longitude><isHalting>true</isHalting></TrainScheduleItem><TrainScheduleItem><serialNumber>2</serialNumber><stationCode>tcr</stationCode><stationName>THRISUR</stationName><arrivalTime>20:00</arrivalTime><departureTime>20:03</departureTime><day>1</day><halt>3</halt><distance>75</distance><latitude>10.51420021</latitude><longitude>76.20812225</longitude><isHalting>true</isHalting></TrainScheduleItem><TrainScheduleItem><serialNumber>3</serialNumber><stationCode>pgt</stationCode><stationName>PALAKKAD</stationName><arrivalTime>21:45</arrivalTime><departureTime>21:50</departureTime><day>1</day><halt>5</halt><distance>152</distance><latitude>10.77565</latitude><longitude>76.6529999</longitude><isHalting>true</isHalting></TrainScheduleItem><TrainScheduleItem><serialNumber>4</serialNumber><stationCode>cbe</stationCode><stationName>COIMBATORE JN</stationName><arrivalTime>23:15</arrivalTime><departureTime>23:20</departureTime><day>1</day><halt>5</halt><distance>206</distance><latitude>11.16</latitude><longitude>76.580002</longitude><isHalting>true</isHalting></TrainScheduleItem><TrainScheduleItem><serialNumber>5</serialNumber><stationCode>ed</stationCode><stationName>ERODE JN</stationName><arrivalTime>00:50</arrivalTime><departureTime>00:55</departureTime><day>2</day><halt>5</halt><distance>307</distance><latitude>11.32788</latitude><longitude>77.726169</longitude><isHalting>true</isHalting></TrainScheduleItem><TrainScheduleItem><serialNumber>6</serialNumber><stationCode>kpd</stationCode><stationName>KATPADI JN</stationName><arrivalTime>05:25</arrivalTime><departureTime>05:30</departureTime><day>2</day><halt>5</halt><distance>573</distance><latitude>12.97141</latitude><longitude>79.13831</longitude><isHalting>true</isHalting></TrainScheduleItem><TrainScheduleItem><serialNumber>7</serialNumber><stationCode>mas</stationCode><stationName>CHENNAI CENTRAL</stationName><arrivalTime>08:15</arrivalTime><departureTime>Destination</departureTime><day>2</day><halt /><distance>702</distance><latitude>13.082589</latitude><longitude>80.275757</longitude><isHalting>true</isHalting></TrainScheduleItem></TrainRecord>	<TrainDetails><Provider>IndianRailways</Provider><TrainName>ERS MAS SUVIDHA</TrainName><TrainNumber>00626</TrainNumber><TrainAttributes><isPantryAvailable>false</isPantryAvailable><isCateringAvailable>false</isCateringAvailable><hasPrepaidTaxiService>false</hasPrepaidTaxiService><hasPrepaidAutoService>false</hasPrepaidAutoService><ClassesAvailable /><RakeShareTrainNumbers /><DaysRunning><Day>Sunday</Day></DaysRunning><CoachComposition /></TrainAttributes></TrainDetails></Train>
<Train><TrainRecord><Provider>IndianRailways</Provider><TrainName>QLN SUVIDHA EXP</TrainName><TrainNumber>00628</TrainNumber><TrainScheduleItem><serialNumber>1</serialNumber><stationCode>mas</stationCode><stationName>CHENNAI CENTRAL</stationName><arrivalTime>Source</arrivalTime><departureTime>18:20</departureTime><day>1</day><halt /><distance>0</distance><latitude>13.082589</latitude><longitude>80.275757</longitude><isHalting>true</isHalting></TrainScheduleItem><TrainScheduleItem><serialNumber>2</serialNumber><stationCode>ajj</stationCode><stationName>ARAKKONAM</stationName><arrivalTime>19:18</arrivalTime><departureTime>19:20</departureTime><day>1</day><halt>2</halt><distance>69</distance><latitude>13.08069992</latitude><longitude>79.66819763</longitude><isHalting>true</isHalting></TrainScheduleItem><TrainScheduleItem><serialNumber>3</serialNumber><stationCode>kpd</stationCode><stationName>KATPADI JN</stationName><arrivalTime>20:13</arrivalTime><departureTime>20:15</departureTime><day>1</day><halt>2</halt><distance>130</distance><latitude>12.97141</latitude><longitude>79.13831</longitude><isHalting>true</isHalting></TrainScheduleItem><TrainScheduleItem><serialNumber>4</serialNumber><stationCode>jtj</stationCode><stationName>JOLARPETTAI</stationName><arrivalTime>21:28</arrivalTime><departureTime>21:30</departureTime><day>1</day><halt>2</halt><distance>214</distance><latitude>12.563969</latitude><longitude>78.578259</longitude><isHalting>true</isHalting></TrainScheduleItem><TrainScheduleItem><serialNumber>5</serialNumber><stationCode>sa</stationCode><stationName>SALEM JN</stationName><arrivalTime>23:15</arrivalTime><departureTime>23:20</departureTime><day>1</day><halt>5</halt><distance>334</distance><latitude>11.669101</latitude><longitude>78.114384</longitude><isHalting>true</isHalting></TrainScheduleItem><TrainScheduleItem><serialNumber>6</serialNumber><stationCode>ed</stationCode><stationName>ERODE JN</stationName><arrivalTime>00:20</arrivalTime><departureTime>00:25</departureTime><day>2</day><halt>5</halt><distance>396</distance><latitude>11.32788</latitude><longitude>77.726169</longitude><isHalting>true</isHalting></TrainScheduleItem><TrainScheduleItem><serialNumber>7</serialNumber><stationCode>tup</stationCode><stationName>TIRUPPUR</stationName><arrivalTime>01:08</arrivalTime><departureTime>01:10</departureTime><day>2</day><halt>2</halt><distance>446</distance><latitude>11.10817</latitude><longitude>77.33886</longitude><isHalting>true</isHalting></TrainScheduleItem><TrainScheduleItem><serialNumber>8</serialNumber><stationCode>cbe</stationCode><stationName>COIMBATORE JN</stationName><arrivalTime>02:05</arrivalTime><departureTime>02:10</departureTime><day>2</day><halt>5</halt><distance>496</distance><latitude>11.16</latitude><longitude>76.580002</longitude><isHalting>true</isHalting></TrainScheduleItem><TrainScheduleItem><serialNumber>9</serialNumber><stationCode>pgt</stationCode><stationName>PALAKKAD</stationName><arrivalTime>03:35</arrivalTime><departureTime>03:55</departureTime><day>2</day><halt>20</halt><distance>550</distance><latitude>10.77565</latitude><longitude>76.6529999</longitude><isHalting>true</isHalting></TrainScheduleItem><TrainScheduleItem><serialNumber>10</serialNumber><stationCode>tcr</stationCode><stationName>THRISUR</stationName><arrivalTime>05:30</arrivalTime><departureTime>05:35</departureTime><day>2</day><halt>5</halt><distance>627</distance><latitude>10.51420021</latitude><longitude>76.20812225</longitude><isHalting>true</isHalting></TrainScheduleItem><TrainScheduleItem><serialNumber>11</serialNumber><stationCode>awy</stationCode><stationName>ALUVA</stationName><arrivalTime>06:28</arrivalTime><departureTime>06:30</departureTime><day>2</day><halt>2</halt><distance>682</distance><latitude>10.10813</latitude><longitude>76.3569</longitude><isHalting>true</isHalting></TrainScheduleItem><TrainScheduleItem><serialNumber>12</serialNumber><stationCode>ern</stationCode><stationName>ERNAKULAM TOWN</stationName><arrivalTime>07:00</arrivalTime><departureTime>07:10</departureTime><day>2</day><halt>10</halt><distance>699</distance><latitude>9.991209984</latitude><longitude>76.28611755</longitude><isHalting>true</isHalting></TrainScheduleItem><TrainScheduleItem><serialNumber>13</serialNumber><stationCode>ktym</stationCode><stationName>KOTTAYAM</stationName><arrivalTime>09:15</arrivalTime><departureTime>09:20</departureTime><day>2</day><halt>5</halt><distance>761</distance><latitude>9.59563</latitude><longitude>76.5313</longitude><isHalting>true</isHalting></TrainScheduleItem><TrainScheduleItem><serialNumber>14</serialNumber><stationCode>trvl</stationCode><stationName>TIRUVALLA</stationName><arrivalTime>09:48</arrivalTime><departureTime>09:50</departureTime><day>2</day><halt>2</halt><distance>787</distance><latitude>9.39220047</latitude><longitude>76.57936096</longitude><isHalting>true</isHalting></TrainScheduleItem><TrainScheduleItem><serialNumber>15</serialNumber><stationCode>cngr</stationCode><stationName>CHENGANNUR</stationName><arrivalTime>10:05</arrivalTime><departureTime>10:10</departureTime><day>2</day><halt>5</halt><distance>796</distance><latitude>9.3204403</latitude><longitude>76.6089783</longitude><isHalting>true</isHalting></TrainScheduleItem><TrainScheduleItem><serialNumber>16</serialNumber><stationCode>kyj</stationCode><stationName>KAYANKULAM JN</stationName><arrivalTime>10:38</arrivalTime><departureTime>10:40</departureTime><day>2</day><halt>2</halt><distance>816</distance><latitude>9.180870056</latitude><longitude>76.51172638</longitude><isHalting>true</isHalting></TrainScheduleItem><TrainScheduleItem><serialNumber>17</serialNumber><stationCode>qln</stationCode><stationName>KOLLAM JN</stationName><arrivalTime>11:30</arrivalTime><departureTime>Destination</departureTime><day>2</day><halt /><distance>857</distance><latitude>8.88601</latitude><longitude>76.59898</longitude><isHalting>true</isHalting></TrainScheduleItem></TrainRecord>	<TrainDetails><Provider>IndianRailways</Provider><TrainName>QLN SUVIDHA EXP</TrainName><TrainNumber>00628</TrainNumber><TrainAttributes><isPantryAvailable>false</isPantryAvailable><isCateringAvailable>false</isCateringAvailable><hasPrepaidTaxiService>false</hasPrepaidTaxiService><hasPrepaidAutoService>false</hasPrepaidAutoService><ClassesAvailable /><RakeShareTrainNumbers /><DaysRunning><Day>Wednesday</Day></DaysRunning><CoachComposition /></TrainAttributes></TrainDetails></Train>
<Train><TrainRecord><Provider>IndianRailways</Provider><TrainName>TVC SUVIDHA EXP</TrainName><TrainNumber>00629</TrainNumber><TrainScheduleItem><serialNumber>1</serialNumber><stationCode>mas</stationCode><stationName>CHENNAI CENTRAL</stationName><arrivalTime>Source</arrivalTime><departureTime>15:15</departureTime><day>1</day><halt /><distance>0</distance><latitude>13.082589</latitude><longitude>80.275757</longitude><isHalting>true</isHalting></TrainScheduleItem><TrainScheduleItem><serialNumber>2</serialNumber><stationCode>ajj</stationCode><stationName>ARAKKONAM</stationName><arrivalTime>16:13</arrivalTime><departureTime>16:15</departureTime><day>1</day><halt>2</halt><distance>69</distance><latitude>13.08069992</latitude><longitude>79.66819763</longitude><isHalting>true</isHalting></TrainScheduleItem><TrainScheduleItem><serialNumber>3</serialNumber><stationCode>kpd</stationCode><stationName>KATPADI JN</stationName><arrivalTime>17:03</arrivalTime><departureTime>17:05</departureTime><day>1</day><halt>2</halt><distance>130</distance><latitude>12.97141</latitude><longitude>79.13831</longitude><isHalting>true</isHalting></TrainScheduleItem><TrainScheduleItem><serialNumber>4</serialNumber><stationCode>jtj</stationCode><stationName>JOLARPETTAI</stationName><arrivalTime>18:25</arrivalTime><departureTime>18:27</departureTime><day>1</day><halt>2</halt><distance>214</distance><latitude>12.563969</latitude><longitude>78.578259</longitude><isHalting>true</isHalting></TrainScheduleItem><TrainScheduleItem><serialNumber>5</serialNumber><stationCode>sa</stationCode><stationName>SALEM JN</stationName><arrivalTime>19:58</arrivalTime><departureTime>20:00</departureTime><day>1</day><halt>2</halt><distance>334</distance><latitude>11.669101</latitude><longitude>78.114384</longitude><isHalting>true</isHalting></TrainScheduleItem><TrainScheduleItem><serialNumber>6</serialNumber><stationCode>ed</stationCode><stationName>ERODE JN</stationName><arrivalTime>20:58</arrivalTime><departureTime>21:00</departureTime><day>1</day><halt>2</halt><distance>396</distance><latitude>11.32788</latitude><longitude>77.726169</longitude><isHalting>true</isHalting></TrainScheduleItem><TrainScheduleItem><serialNumber>7</serialNumber><stationCode>tup</stationCode><stationName>TIRUPPUR</stationName><arrivalTime>21:40</arrivalTime><departureTime>21:42</departureTime><day>1</day><halt>2</halt><distance>446</distance><latitude>11.10817</latitude><longitude>77.33886</longitude><isHalting>true</isHalting></TrainScheduleItem><TrainScheduleItem><serialNumber>8</serialNumber><stationCode>cbe</stationCode><stationName>COIMBATORE JN</stationName><arrivalTime>22:45</arrivalTime><departureTime>22:50</departureTime><day>1</day><halt>5</halt><distance>497</distance><latitude>11.16</latitude><longitude>76.580002</longitude><isHalting>true</isHalting></TrainScheduleItem><TrainScheduleItem><serialNumber>9</serialNumber><stationCode>pgt</stationCode><stationName>PALAKKAD</stationName><arrivalTime>00:15</arrivalTime><departureTime>00:20</departureTime><day>2</day><halt>5</halt><distance>551</distance><latitude>10.77565</latitude><longitude>76.6529999</longitude><isHalting>true</isHalting></TrainScheduleItem><TrainScheduleItem><serialNumber>10</serialNumber><stationCode>tcr</stationCode><stationName>THRISUR</stationName><arrivalTime>01:32</arrivalTime><departureTime>01:35</departureTime><day>2</day><halt>3</halt><distance>628</distance><latitude>10.51420021</latitude><longitude>76.20812225</longitude><isHalting>true</isHalting></TrainScheduleItem><TrainScheduleItem><serialNumber>11</serialNumber><stationCode>awy</stationCode><stationName>ALUVA</stationName><arrivalTime>02:23</arrivalTime><departureTime>02:25</departureTime><day>2</day><halt>2</halt><distance>683</distance><latitude>10.10813</latitude><longitude>76.3569</longitude><isHalting>true</isHalting></TrainScheduleItem><TrainScheduleItem><serialNumber>12</serialNumber><stationCode>ern</stationCode><stationName>ERNAKULAM TOWN</stationName><arrivalTime>02:45</arrivalTime><departureTime>02:50</departureTime><day>2</day><halt>5</halt><distance>700</distance><latitude>9.991209984</latitude><longitude>76.28611755</longitude><isHalting>true</isHalting></TrainScheduleItem><TrainScheduleItem><serialNumber>13</serialNumber><stationCode>ktym</stationCode><stationName>KOTTAYAM</stationName><arrivalTime>04:07</arrivalTime><departureTime>04:10</departureTime><day>2</day><halt>3</halt><distance>762</distance><latitude>9.59563</latitude><longitude>76.5313</longitude><isHalting>true</isHalting></TrainScheduleItem><TrainScheduleItem><serialNumber>14</serialNumber><stationCode>cgy</stationCode><stationName>CHANGANASERI</stationName><arrivalTime>04:28</arrivalTime><departureTime>04:30</departureTime><day>2</day><halt>2</halt><distance>780</distance><latitude>9.45027</latitude><longitude>76.5467</longitude><isHalting>true</isHalting></TrainScheduleItem><TrainScheduleItem><serialNumber>15</serialNumber><stationCode>trvl</stationCode><stationName>TIRUVALLA</stationName><arrivalTime>04:38</arrivalTime><departureTime>04:40</departureTime><day>2</day><halt>2</halt><distance>788</distance><latitude>9.39220047</latitude><longitude>76.57936096</longitude><isHalting>true</isHalting></TrainScheduleItem><TrainScheduleItem><serialNumber>16</serialNumber><stationCode>cngr</stationCode><stationName>CHENGANNUR</stationName><arrivalTime>04:49</arrivalTime><departureTime>04:51</departureTime><day>2</day><halt>2</halt><distance>797</distance><latitude>9.3204403</latitude><longitude>76.6089783</longitude><isHalting>true</isHalting></TrainScheduleItem><TrainScheduleItem><serialNumber>17</serialNumber><stationCode>kyj</stationCode><stationName>KAYANKULAM JN</stationName><arrivalTime>05:12</arrivalTime><departureTime>05:14</departureTime><day>2</day><halt>2</halt><distance>817</distance><latitude>9.180870056</latitude><longitude>76.51172638</longitude><isHalting>true</isHalting></TrainScheduleItem><TrainScheduleItem><serialNumber>18</serialNumber><stationCode>qln</stationCode><stationName>KOLLAM JN</stationName><arrivalTime>06:06</arrivalTime><departureTime>06:08</departureTime><day>2</day><halt>2</halt><distance>858</distance><latitude>8.88601</latitude><longitude>76.59898</longitude><isHalting>true</isHalting></TrainScheduleItem><TrainScheduleItem><serialNumber>19</serialNumber><stationCode>tvc</stationCode><stationName>TRIVANDRUM CNTL</stationName><arrivalTime>07:45</arrivalTime><departureTime>Destination</departureTime><day>2</day><halt /><distance>922</distance><latitude>8.486357</latitude><longitude>76.951688</longitude><isHalting>true</isHalting></TrainScheduleItem></TrainRecord>	<TrainDetails><Provider>IndianRailways</Provider><TrainName>TVC SUVIDHA EXP</TrainName><TrainNumber>00629</TrainNumber><TrainAttributes><isPantryAvailable>false</isPantryAvailable><isCateringAvailable>false</isCateringAvailable><hasPrepaidTaxiService>false</hasPrepaidTaxiService><hasPrepaidAutoService>false</hasPrepaidAutoService><ClassesAvailable /><RakeShareTrainNumbers /><DaysRunning><Day>Thursday</Day></DaysRunning><CoachComposition /></TrainAttributes></TrainDetails></Train>
<Train><TrainRecord><Provider>IndianRailways</Provider><TrainName>MS TEN SUVIDHA</TrainName><TrainNumber>00630</TrainNumber><TrainScheduleItem><serialNumber>1</serialNumber><stationCode>ms</stationCode><stationName>CHENNAI EGMORE</stationName><arrivalTime>Source</arrivalTime><departureTime>22:45</departureTime><day>1</day><halt /><distance>0</distance><latitude>13.07747</latitude><longitude>80.26136</longitude><isHalting>true</isHalting></TrainScheduleItem><TrainScheduleItem><serialNumber>2</serialNumber><stationCode>dg</stationCode><stationName>DINDIGUL JN</stationName><arrivalTime>07:28</arrivalTime><departureTime>07:30</departureTime><day>2</day><halt>2</halt><distance>495</distance><latitude>9.91971</latitude><longitude>78.10901</longitude><isHalting>true</isHalting></TrainScheduleItem><TrainScheduleItem><serialNumber>3</serialNumber><stationCode>mdu</stationCode><stationName>MADURAI JN</stationName><arrivalTime>08:45</arrivalTime><departureTime>08:50</departureTime><day>2</day><halt>5</halt><distance>561</distance><latitude>9.92051</latitude><longitude>78.110512</longitude><isHalting>true</isHalting></TrainScheduleItem><TrainScheduleItem><serialNumber>4</serialNumber><stationCode>vpt</stationCode><stationName>VIRUDUNAGAR JN</stationName><arrivalTime>10:08</arrivalTime><departureTime>10:10</departureTime><day>2</day><halt>2</halt><distance>604</distance><latitude>9.594369888</latitude><longitude>77.95722961</longitude><isHalting>true</isHalting></TrainScheduleItem><TrainScheduleItem><serialNumber>5</serialNumber><stationCode>cvp</stationCode><stationName>KOVILPATTI</stationName><arrivalTime>11:08</arrivalTime><departureTime>11:10</departureTime><day>2</day><halt>2</halt><distance>653</distance><latitude>9.182729721</latitude><longitude>77.87358856</longitude><isHalting>true</isHalting></TrainScheduleItem><TrainScheduleItem><serialNumber>6</serialNumber><stationCode>ten</stationCode><stationName>TIRUNELVELI</stationName><arrivalTime>12:30</arrivalTime><departureTime>Destination</departureTime><day>2</day><halt /><distance>718</distance><latitude>8.737018</latitude><longitude>77.707792</longitude><isHalting>true</isHalting></TrainScheduleItem></TrainRecord>	<TrainDetails><Provider>IndianRailways</Provider><TrainName>MS TEN SUVIDHA</TrainName><TrainNumber>00630</TrainNumber><TrainAttributes><isPantryAvailable>false</isPantryAvailable><isCateringAvailable>false</isCateringAvailable><hasPrepaidTaxiService>false</hasPrepaidTaxiService><hasPrepaidAutoService>false</hasPrepaidAutoService><ClassesAvailable /><RakeShareTrainNumbers /><DaysRunning><Day>Wednesday</Day></DaysRunning><CoachComposition /></TrainAttributes></TrainDetails></Train>
<Train><TrainRecord><Provider>erail</Provider><TrainName>pune jbp spl</TrainName><TrainNumber>01655</TrainNumber><TrainScheduleItem><serialNumber>1</serialNumber><stationCode>pune</stationCode><stationName>pune jn</stationName><arrivalTime>first</arrivalTime><departureTime>10:45</departureTime><day>1</day><halt>0</halt><distance>0</distance><latitude>18.52826</latitude><longitude>73.87435</longitude><isHalting>true</isHalting></TrainScheduleItem><TrainScheduleItem><serialNumber>2</serialNumber><stationCode>dd</stationCode><stationName>daund jn</stationName><arrivalTime>12:05</arrivalTime><departureTime>12:15</departureTime><day>1</day><halt>10</halt><distance>76</distance><latitude>18.463226</latitude><longitude>74.582628</longitude><isHalting>true</isHalting></TrainScheduleItem><TrainScheduleItem><serialNumber>3</serialNumber><stationCode>ang</stationCode><stationName>ahmadnagar</stationName><arrivalTime>13:58</arrivalTime><departureTime>14:00</departureTime><day>1</day><halt>2</halt><distance>160</distance><latitude>19.075087</latitude><longitude>74.721678</longitude><isHalting>true</isHalting></TrainScheduleItem><TrainScheduleItem><serialNumber>4</serialNumber><stationCode>kpg</stationCode><stationName>kopargaon</stationName><arrivalTime>15:58</arrivalTime><departureTime>16:00</departureTime><day>1</day><halt>2</halt><distance>271</distance><latitude>19.903457</latitude><longitude>74.503646</longitude><isHalting>true</isHalting></TrainScheduleItem><TrainScheduleItem><serialNumber>5</serialNumber><stationCode>mmr</stationCode><stationName>manmad jn</stationName><arrivalTime>17:20</arrivalTime><departureTime>17:25</departureTime><day>1</day><halt>5</halt><distance>313</distance><latitude>20.25107002</latitude><longitude>74.43940735</longitude><isHalting>true</isHalting></TrainScheduleItem><TrainScheduleItem><serialNumber>6</serialNumber><stationCode>bsl</stationCode><stationName>bhusaval jn</stationName><arrivalTime>20:10</arrivalTime><departureTime>20:20</departureTime><day>1</day><halt>10</halt><distance>497</distance><latitude>21.047017</latitude><longitude>75.788381</longitude><isHalting>true</isHalting></TrainScheduleItem><TrainScheduleItem><serialNumber>7</serialNumber><stationCode>knw</stationCode><stationName>khandwa jn</stationName><arrivalTime>23:40</arrivalTime><departureTime>23:45</departureTime><day>1</day><halt>5</halt><distance>620</distance><latitude>21.8248</latitude><longitude>76.353018</longitude><isHalting>true</isHalting></TrainScheduleItem><TrainScheduleItem><serialNumber>8</serialNumber><stationCode>hd</stationCode><stationName>harda</stationName><arrivalTime>00:55</arrivalTime><departureTime>00:57</departureTime><day>2</day><halt>2</halt><distance>728</distance><latitude /><longitude /><isHalting>true</isHalting></TrainScheduleItem><TrainScheduleItem><serialNumber>9</serialNumber><stationCode>et</stationCode><stationName>itarsi jn</stationName><arrivalTime>02:20</arrivalTime><departureTime>02:30</departureTime><day>2</day><halt>10</halt><distance>804</distance><latitude>22.608334</latitude><longitude>77.766752</longitude><isHalting>true</isHalting></TrainScheduleItem><TrainScheduleItem><serialNumber>10</serialNumber><stationCode>ppi</stationCode><stationName>pipariya</stationName><arrivalTime>03:18</arrivalTime><departureTime>03:20</departureTime><day>2</day><halt>2</halt><distance>871</distance><latitude>22.754413</latitude><longitude>78.355649</longitude><isHalting>true</isHalting></TrainScheduleItem><TrainScheduleItem><serialNumber>11</serialNumber><stationCode>nu</stationCode><stationName>narsinghpur</stationName><arrivalTime>04:38</arrivalTime><departureTime>04:40</departureTime><day>2</day><halt>2</halt><distance>965</distance><latitude>22.94328</latitude><longitude>79.21456</longitude><isHalting>true</isHalting></TrainScheduleItem><TrainScheduleItem><serialNumber>12</serialNumber><stationCode>mml</stationCode><stationName>madan mahal</stationName><arrivalTime>06:07</arrivalTime><departureTime>06:09</departureTime><day>2</day><halt>2</halt><distance>1045</distance><latitude>23.15903</latitude><longitude>79.91992</longitude><isHalting>true</isHalting></TrainScheduleItem><TrainScheduleItem><serialNumber>13</serialNumber><stationCode>jbp</stationCode><stationName>jabalpur</stationName><arrivalTime>06:15</arrivalTime><departureTime>last</departureTime><day>2</day><halt>0</halt><distance>1049</distance><latitude>23.16472244</latitude><longitude>79.95111084</longitude><isHalting>true</isHalting></TrainScheduleItem></TrainRecord>	<TrainDetails><Provider>erail</Provider><TrainName>PUNE JBP SPL</TrainName><TrainNumber>01655</TrainNumber><TrainAttributes><isPantryAvailable>false</isPantryAvailable><isCateringAvailable>false</isCateringAvailable><hasPrepaidTaxiService>false</hasPrepaidTaxiService><hasPrepaidAutoService>false</hasPrepaidAutoService><trainType>Special</trainType><fareType>Mail Express</fareType><pairTrainNumber>01656</pairTrainNumber><pairTrainName>Jbp Pune Specia</pairTrainName><ClassesAvailable><Class>2A</Class><Class>3A</Class><Class>SL</Class><Class>GN</Class></ClassesAvailable><RakeShareTrainNumbers><RakeShareTrainNumber /></RakeShareTrainNumbers><DaysRunning><Day>Tuesday</Day></DaysRunning><CoachComposition /></TrainAttributes></TrainDetails></Train>
<Train><TrainRecord><Provider>erail</Provider><TrainName>jbp pune specia</TrainName><TrainNumber>01656</TrainNumber><TrainScheduleItem><serialNumber>1</serialNumber><stationCode>jbp</stationCode><stationName>jabalpur</stationName><arrivalTime>first</arrivalTime><departureTime>09:00</departureTime><day>1</day><halt>0</halt><distance>0</distance><latitude>23.16472244</latitude><longitude>79.95111084</longitude><isHalting>true</isHalting></TrainScheduleItem><TrainScheduleItem><serialNumber>2</serialNumber><stationCode>mml</stationCode><stationName>madan mahal</stationName><arrivalTime>09:06</arrivalTime><departureTime>09:08</departureTime><day>1</day><halt>2</halt><distance>4</distance><latitude>23.15903</latitude><longitude>79.91992</longitude><isHalting>true</isHalting></TrainScheduleItem><TrainScheduleItem><serialNumber>3</serialNumber><stationCode>nu</stationCode><stationName>narsinghpur</stationName><arrivalTime>10:13</arrivalTime><departureTime>10:15</departureTime><day>1</day><halt>2</halt><distance>85</distance><latitude>22.94328</latitude><longitude>79.21456</longitude><isHalting>true</isHalting></TrainScheduleItem><TrainScheduleItem><serialNumber>4</serialNumber><stationCode>ppi</stationCode><stationName>pipariya</stationName><arrivalTime>11:23</arrivalTime><departureTime>11:25</departureTime><day>1</day><halt>2</halt><distance>178</distance><latitude>22.754413</latitude><longitude>78.355649</longitude><isHalting>true</isHalting></TrainScheduleItem><TrainScheduleItem><serialNumber>5</serialNumber><stationCode>et</stationCode><stationName>itarsi jn</stationName><arrivalTime>12:45</arrivalTime><departureTime>12:55</departureTime><day>1</day><halt>10</halt><distance>246</distance><latitude>22.608334</latitude><longitude>77.766752</longitude><isHalting>true</isHalting></TrainScheduleItem><TrainScheduleItem><serialNumber>6</serialNumber><stationCode>hd</stationCode><stationName>harda</stationName><arrivalTime>13:45</arrivalTime><departureTime>13:47</departureTime><day>1</day><halt>2</halt><distance>321</distance><latitude /><longitude /><isHalting>true</isHalting></TrainScheduleItem><TrainScheduleItem><serialNumber>7</serialNumber><stationCode>knw</stationCode><stationName>khandwa jn</stationName><arrivalTime>15:20</arrivalTime><departureTime>15:25</departureTime><day>1</day><halt>5</halt><distance>429</distance><latitude>21.8248</latitude><longitude>76.353018</longitude><isHalting>true</isHalting></TrainScheduleItem><TrainScheduleItem><serialNumber>8</serialNumber><stationCode>bsl</stationCode><stationName>bhusaval jn</stationName><arrivalTime>16:50</arrivalTime><departureTime>17:00</departureTime><day>1</day><halt>10</halt><distance>553</distance><latitude>21.047017</latitude><longitude>75.788381</longitude><isHalting>true</isHalting></TrainScheduleItem><TrainScheduleItem><serialNumber>9</serialNumber><stationCode>mmr</stationCode><stationName>manmad jn</stationName><arrivalTime>19:45</arrivalTime><departureTime>19:50</departureTime><day>1</day><halt>5</halt><distance>737</distance><latitude>20.25107002</latitude><longitude>74.43940735</longitude><isHalting>true</isHalting></TrainScheduleItem><TrainScheduleItem><serialNumber>10</serialNumber><stationCode>kpg</stationCode><stationName>kopargaon</stationName><arrivalTime>20:53</arrivalTime><departureTime>20:55</departureTime><day>1</day><halt>2</halt><distance>778</distance><latitude>19.903457</latitude><longitude>74.503646</longitude><isHalting>true</isHalting></TrainScheduleItem><TrainScheduleItem><serialNumber>11</serialNumber><stationCode>ang</stationCode><stationName>ahmadnagar</stationName><arrivalTime>22:57</arrivalTime><departureTime>23:00</departureTime><day>1</day><halt>3</halt><distance>889</distance><latitude>19.075087</latitude><longitude>74.721678</longitude><isHalting>true</isHalting></TrainScheduleItem><TrainScheduleItem><serialNumber>12</serialNumber><stationCode>dd</stationCode><stationName>daund jn</stationName><arrivalTime>01:55</arrivalTime><departureTime>02:10</departureTime><day>2</day><halt>15</halt><distance>973</distance><latitude>18.463226</latitude><longitude>74.582628</longitude><isHalting>true</isHalting></TrainScheduleItem><TrainScheduleItem><serialNumber>13</serialNumber><stationCode>pune</stationCode><stationName>pune jn</stationName><arrivalTime>04:05</arrivalTime><departureTime>last</departureTime><day>2</day><halt>0</halt><distance>1049</distance><latitude>18.52826</latitude><longitude>73.87435</longitude><isHalting>true</isHalting></TrainScheduleItem></TrainRecord>	<TrainDetails><Provider>erail</Provider><TrainName>JBP PUNE SPECIA</TrainName><TrainNumber>01656</TrainNumber><TrainAttributes><isPantryAvailable>false</isPantryAvailable><isCateringAvailable>false</isCateringAvailable><hasPrepaidTaxiService>false</hasPrepaidTaxiService><hasPrepaidAutoService>false</hasPrepaidAutoService><trainType>Special</trainType><fareType>Mail Express</fareType><pairTrainNumber>01655</pairTrainNumber><pairTrainName>Pune Jbp Spl</pairTrainName><ClassesAvailable><Class>2A</Class><Class>3A</Class><Class>SL</Class><Class>GN</Class></ClassesAvailable><RakeShareTrainNumbers><RakeShareTrainNumber /></RakeShareTrainNumbers><DaysRunning><Day>Monday</Day></DaysRunning><CoachComposition /></TrainAttributes></TrainDetails></Train>
<Train><TrainRecord><Provider>IndianRailways</Provider><TrainName>HWH PUNE SF SPL</TrainName><TrainNumber>02222</TrainNumber><TrainScheduleItem><serialNumber>1</serialNumber><stationCode>hwh</stationCode><stationName>HOWRAH JN</stationName><arrivalTime>Source</arrivalTime><departureTime>18:30</departureTime><day>1</day><halt /><distance>0</distance><latitude>22.584108</latitude><longitude>88.341202</longitude><isHalting>true</isHalting></TrainScheduleItem><TrainScheduleItem><serialNumber>2</serialNumber><stationCode>kgp</stationCode><stationName>KHARAGPUR JN</stationName><arrivalTime>20:10</arrivalTime><departureTime>20:15</departureTime><day>1</day><halt>5</halt><distance>116</distance><latitude>22.340005</latitude><longitude>87.324902</longitude><isHalting>true</isHalting></TrainScheduleItem><TrainScheduleItem><serialNumber>3</serialNumber><stationCode>tata</stationCode><stationName>TATANAGAR JN</stationName><arrivalTime>22:00</arrivalTime><departureTime>22:05</departureTime><day>1</day><halt>5</halt><distance>250</distance><latitude>22.76820946</latitude><longitude>86.2000885</longitude><isHalting>true</isHalting></TrainScheduleItem><TrainScheduleItem><serialNumber>4</serialNumber><stationCode>ckp</stationCode><stationName>CHAKRADHARPUR</stationName><arrivalTime>22:58</arrivalTime><departureTime>23:00</departureTime><day>1</day><halt>2</halt><distance>312</distance><latitude>22.67828941</latitude><longitude>85.62796783</longitude><isHalting>true</isHalting></TrainScheduleItem><TrainScheduleItem><serialNumber>5</serialNumber><stationCode>rou</stationCode><stationName>ROURKELA</stationName><arrivalTime>00:13</arrivalTime><departureTime>00:28</departureTime><day>2</day><halt>15</halt><distance>413</distance><latitude>22.22739</latitude><longitude>84.86294</longitude><isHalting>true</isHalting></TrainScheduleItem><TrainScheduleItem><serialNumber>6</serialNumber><stationCode>jsg</stationCode><stationName>JHARSUGUDA JN</stationName><arrivalTime>01:58</arrivalTime><departureTime>02:00</departureTime><day>2</day><halt>2</halt><distance>515</distance><latitude>21.8610096</latitude><longitude>84.01898956</longitude><isHalting>true</isHalting></TrainScheduleItem><TrainScheduleItem><serialNumber>7</serialNumber><stationCode>bsp</stationCode><stationName>BILASPUR JN</stationName><arrivalTime>04:50</arrivalTime><departureTime>05:00</departureTime><day>2</day><halt>10</halt><distance>720</distance><latitude>22.05626</latitude><longitude>82.17303</longitude><isHalting>true</isHalting></TrainScheduleItem><TrainScheduleItem><serialNumber>8</serialNumber><stationCode>r</stationCode><stationName>RAIPUR JN</stationName><arrivalTime>06:25</arrivalTime><departureTime>06:30</departureTime><day>2</day><halt>5</halt><distance>831</distance><latitude>29.15454</latitude><longitude>75.770727</longitude><isHalting>true</isHalting></TrainScheduleItem><TrainScheduleItem><serialNumber>9</serialNumber><stationCode>ngp</stationCode><stationName>NAGPUR</stationName><arrivalTime>11:15</arrivalTime><departureTime>11:25</departureTime><day>2</day><halt>10</halt><distance>1131</distance><latitude>21.15233</latitude><longitude>79.08806</longitude><isHalting>true</isHalting></TrainScheduleItem><TrainScheduleItem><serialNumber>10</serialNumber><stationCode>bsl</stationCode><stationName>BHUSAVAL JN</stationName><arrivalTime>16:30</arrivalTime><departureTime>16:40</departureTime><day>2</day><halt>10</halt><distance>1524</distance><latitude>21.047017</latitude><longitude>75.788381</longitude><isHalting>true</isHalting></TrainScheduleItem><TrainScheduleItem><serialNumber>11</serialNumber><stationCode>pnvl</stationCode><stationName>PANVEL</stationName><arrivalTime>23:35</arrivalTime><departureTime>23:40</departureTime><day>2</day><halt>5</halt><distance>1951</distance><latitude>18.989677</latitude><longitude>73.12269</longitude><isHalting>true</isHalting></TrainScheduleItem><TrainScheduleItem><serialNumber>12</serialNumber><stationCode>pune</stationCode><stationName>PUNE JN</stationName><arrivalTime>02:45</arrivalTime><departureTime>Destination</departureTime><day>3</day><halt /><distance>2071</distance><latitude>18.52826</latitude><longitude>73.87435</longitude><isHalting>true</isHalting></TrainScheduleItem></TrainRecord>	<TrainDetails><Provider>IndianRailways</Provider><TrainName>HWH PUNE SF SPL</TrainName><TrainNumber>02222</TrainNumber><TrainAttributes><isPantryAvailable>false</isPantryAvailable><isCateringAvailable>false</isCateringAvailable><hasPrepaidTaxiService>false</hasPrepaidTaxiService><hasPrepaidAutoService>false</hasPrepaidAutoService><ClassesAvailable /><RakeShareTrainNumbers /><DaysRunning><Day>Saturday</Day></DaysRunning><CoachComposition /></TrainAttributes></TrainDetails></Train>
<Train><TrainRecord><Provider>erail</Provider><TrainName>bnc kyq suvidha</TrainName><TrainNumber>02509</TrainNumber><TrainScheduleItem><serialNumber>1</serialNumber><stationCode>bnc</stationCode><stationName>bangalore cant</stationName><arrivalTime>first</arrivalTime><departureTime>10:15</departureTime><day>1</day><halt>0</halt><distance>0</distance><latitude>12.991932</latitude><longitude>77.598311</longitude><isHalting>true</isHalting></TrainScheduleItem><TrainScheduleItem><serialNumber>2</serialNumber><stationCode>kpd</stationCode><stationName>katpadi jn</stationName><arrivalTime>13:45</arrivalTime><departureTime>13:47</departureTime><day>1</day><halt>2</halt><distance>228</distance><latitude>12.97141</latitude><longitude>79.13831</longitude><isHalting>true</isHalting></TrainScheduleItem><TrainScheduleItem><serialNumber>3</serialNumber><stationCode>mas</stationCode><stationName>chennai central</stationName><arrivalTime>15:55</arrivalTime><departureTime>16:25</departureTime><day>1</day><halt>30</halt><distance>357</distance><latitude>13.082589</latitude><longitude>80.275757</longitude><isHalting>true</isHalting></TrainScheduleItem><TrainScheduleItem><serialNumber>4</serialNumber><stationCode>bza</stationCode><stationName>vijayawada jn</stationName><arrivalTime>23:45</arrivalTime><departureTime>23:55</departureTime><day>1</day><halt>10</halt><distance>787</distance><latitude>16.52145</latitude><longitude>80.6213531</longitude><isHalting>true</isHalting></TrainScheduleItem><TrainScheduleItem><serialNumber>5</serialNumber><stationCode>vzm</stationCode><stationName>vizianagaram jn</stationName><arrivalTime>06:05</arrivalTime><departureTime>06:20</departureTime><day>2</day><halt>15</halt><distance>1185</distance><latitude>18.111801</latitude><longitude>83.396014</longitude><isHalting>true</isHalting></TrainScheduleItem><TrainScheduleItem><serialNumber>6</serialNumber><stationCode>kur</stationCode><stationName>khurda road jn</stationName><arrivalTime>11:10</arrivalTime><departureTime>11:25</departureTime><day>2</day><halt>15</halt><distance>1548</distance><latitude>20.153218</latitude><longitude>85.708103</longitude><isHalting>true</isHalting></TrainScheduleItem><TrainScheduleItem><serialNumber>7</serialNumber><stationCode>bbs</stationCode><stationName>bhubaneswar</stationName><arrivalTime>11:45</arrivalTime><departureTime>11:50</departureTime><day>2</day><halt>5</halt><distance>1567</distance><latitude>20.266287</latitude><longitude>85.843472</longitude><isHalting>true</isHalting></TrainScheduleItem><TrainScheduleItem><serialNumber>8</serialNumber><stationCode>kgp</stationCode><stationName>kharagpur jn</stationName><arrivalTime>16:35</arrivalTime><departureTime>16:37</departureTime><day>2</day><halt>2</halt><distance>1891</distance><latitude>22.340005</latitude><longitude>87.324902</longitude><isHalting>true</isHalting></TrainScheduleItem><TrainScheduleItem><serialNumber>9</serialNumber><stationCode>hwh</stationCode><stationName>howrah jn</stationName><arrivalTime>18:30</arrivalTime><departureTime>18:50</departureTime><day>2</day><halt>20</halt><distance>2006</distance><latitude>22.584108</latitude><longitude>88.341202</longitude><isHalting>true</isHalting></TrainScheduleItem><TrainScheduleItem><serialNumber>10</serialNumber><stationCode>rph</stationCode><stationName>rampur hat</stationName><arrivalTime>21:46</arrivalTime><departureTime>21:48</departureTime><day>2</day><halt>2</halt><distance>2212</distance><latitude>24.17916679</latitude><longitude>87.78194427</longitude><isHalting>true</isHalting></TrainScheduleItem><TrainScheduleItem><serialNumber>11</serialNumber><stationCode>mldt</stationCode><stationName>malda town</stationName><arrivalTime>00:30</arrivalTime><departureTime>00:40</departureTime><day>3</day><halt>10</halt><distance>2333</distance><latitude>25.015885</latitude><longitude>88.13049</longitude><isHalting>true</isHalting></TrainScheduleItem><TrainScheduleItem><serialNumber>12</serialNumber><stationCode>kne</stationCode><stationName>kishanganj</stationName><arrivalTime>02:30</arrivalTime><departureTime>02:32</departureTime><day>3</day><halt>2</halt><distance>2479</distance><latitude>26.098179</latitude><longitude>87.949714</longitude><isHalting>true</isHalting></TrainScheduleItem><TrainScheduleItem><serialNumber>13</serialNumber><stationCode>njp</stationCode><stationName>new jalpaiguri jn</stationName><arrivalTime>04:20</arrivalTime><departureTime>04:35</departureTime><day>3</day><halt>15</halt><distance>2566</distance><latitude>26.68445</latitude><longitude>88.44335</longitude><isHalting>true</isHalting></TrainScheduleItem><TrainScheduleItem><serialNumber>14</serialNumber><stationCode>nbq</stationCode><stationName>new bongaigaon jn</stationName><arrivalTime>09:50</arrivalTime><departureTime>09:55</departureTime><day>3</day><halt>5</halt><distance>2817</distance><latitude>26.475781</latitude><longitude>90.536184</longitude><isHalting>true</isHalting></TrainScheduleItem><TrainScheduleItem><serialNumber>15</serialNumber><stationCode>kyq</stationCode><stationName>kamakhya jn</stationName><arrivalTime>13:30</arrivalTime><departureTime>last</departureTime><day>3</day><halt>0</halt><distance>3019</distance><latitude>26.15638</latitude><longitude>91.69233</longitude><isHalting>true</isHalting></TrainScheduleItem></TrainRecord>	<TrainDetails><Provider>erail</Provider><TrainName>BNC KYQ SUVIDHA</TrainName><TrainNumber>02509</TrainNumber><TrainAttributes><isPantryAvailable>false</isPantryAvailable><isCateringAvailable>false</isCateringAvailable><hasPrepaidTaxiService>false</hasPrepaidTaxiService><hasPrepaidAutoService>false</hasPrepaidAutoService><trainType>Suvidha</trainType><fareType>Superfast</fareType><pairTrainNumber>02510</pairTrainNumber><pairTrainName>Kyq Bnc Suvidha</pairTrainName><ClassesAvailable><Class>2A</Class><Class>3A</Class><Class>SL</Class></ClassesAvailable><RakeShareTrainNumbers><RakeShareTrainNumber /></RakeShareTrainNumbers><DaysRunning><Day>Friday</Day></DaysRunning><CoachComposition /></TrainAttributes></TrainDetails></Train>
<Train><TrainRecord><Provider>erail</Provider><TrainName>kyq bnc suvidha</TrainName><TrainNumber>02510</TrainNumber><TrainScheduleItem><serialNumber>1</serialNumber><stationCode>kyq</stationCode><stationName>kamakhya jn</stationName><arrivalTime>first</arrivalTime><departureTime>20:10</departureTime><day>1</day><halt>0</halt><distance>0</distance><latitude>26.15638</latitude><longitude>91.69233</longitude><isHalting>true</isHalting></TrainScheduleItem><TrainScheduleItem><serialNumber>2</serialNumber><stationCode>nbq</stationCode><stationName>new bongaigaon jn</stationName><arrivalTime>23:00</arrivalTime><departureTime>23:05</departureTime><day>1</day><halt>5</halt><distance>202</distance><latitude>26.475781</latitude><longitude>90.536184</longitude><isHalting>true</isHalting></TrainScheduleItem><TrainScheduleItem><serialNumber>3</serialNumber><stationCode>njp</stationCode><stationName>new jalpaiguri jn</stationName><arrivalTime>02:35</arrivalTime><departureTime>02:45</departureTime><day>2</day><halt>10</halt><distance>454</distance><latitude>26.68445</latitude><longitude>88.44335</longitude><isHalting>true</isHalting></TrainScheduleItem><TrainScheduleItem><serialNumber>4</serialNumber><stationCode>kne</stationCode><stationName>kishanganj</stationName><arrivalTime>03:50</arrivalTime><departureTime>03:52</departureTime><day>2</day><halt>2</halt><distance>541</distance><latitude>26.098179</latitude><longitude>87.949714</longitude><isHalting>true</isHalting></TrainScheduleItem><TrainScheduleItem><serialNumber>5</serialNumber><stationCode>mldt</stationCode><stationName>malda town</stationName><arrivalTime>06:40</arrivalTime><departureTime>06:50</departureTime><day>2</day><halt>10</halt><distance>686</distance><latitude>25.015885</latitude><longitude>88.13049</longitude><isHalting>true</isHalting></TrainScheduleItem><TrainScheduleItem><serialNumber>6</serialNumber><stationCode>rph</stationCode><stationName>rampur hat</stationName><arrivalTime>09:10</arrivalTime><departureTime>09:12</departureTime><day>2</day><halt>2</halt><distance>807</distance><latitude>24.17916679</latitude><longitude>87.78194427</longitude><isHalting>true</isHalting></TrainScheduleItem><TrainScheduleItem><serialNumber>7</serialNumber><stationCode>hwh</stationCode><stationName>howrah jn</stationName><arrivalTime>12:20</arrivalTime><departureTime>12:40</departureTime><day>2</day><halt>20</halt><distance>1014</distance><latitude>22.584108</latitude><longitude>88.341202</longitude><isHalting>true</isHalting></TrainScheduleItem><TrainScheduleItem><serialNumber>8</serialNumber><stationCode>kgp</stationCode><stationName>kharagpur jn</stationName><arrivalTime>14:25</arrivalTime><departureTime>14:27</departureTime><day>2</day><halt>2</halt><distance>1129</distance><latitude>22.340005</latitude><longitude>87.324902</longitude><isHalting>true</isHalting></TrainScheduleItem><TrainScheduleItem><serialNumber>9</serialNumber><stationCode>bbs</stationCode><stationName>bhubaneswar</stationName><arrivalTime>19:10</arrivalTime><departureTime>19:15</departureTime><day>2</day><halt>5</halt><distance>1453</distance><latitude>20.266287</latitude><longitude>85.843472</longitude><isHalting>true</isHalting></TrainScheduleItem><TrainScheduleItem><serialNumber>10</serialNumber><stationCode>kur</stationCode><stationName>khurda road jn</stationName><arrivalTime>19:50</arrivalTime><departureTime>20:00</departureTime><day>2</day><halt>10</halt><distance>1472</distance><latitude>20.153218</latitude><longitude>85.708103</longitude><isHalting>true</isHalting></TrainScheduleItem><TrainScheduleItem><serialNumber>11</serialNumber><stationCode>vzm</stationCode><stationName>vizianagaram jn</stationName><arrivalTime>00:50</arrivalTime><departureTime>01:00</departureTime><day>3</day><halt>10</halt><distance>1834</distance><latitude>18.111801</latitude><longitude>83.396014</longitude><isHalting>true</isHalting></TrainScheduleItem><TrainScheduleItem><serialNumber>12</serialNumber><stationCode>bza</stationCode><stationName>vijayawada jn</stationName><arrivalTime>07:50</arrivalTime><departureTime>08:00</departureTime><day>3</day><halt>10</halt><distance>2232</distance><latitude>16.52145</latitude><longitude>80.6213531</longitude><isHalting>true</isHalting></TrainScheduleItem><TrainScheduleItem><serialNumber>13</serialNumber><stationCode>mas</stationCode><stationName>chennai central</stationName><arrivalTime>14:50</arrivalTime><departureTime>15:15</departureTime><day>3</day><halt>25</halt><distance>2662</distance><latitude>13.082589</latitude><longitude>80.275757</longitude><isHalting>true</isHalting></TrainScheduleItem><TrainScheduleItem><serialNumber>14</serialNumber><stationCode>kpd</stationCode><stationName>katpadi jn</stationName><arrivalTime>17:15</arrivalTime><departureTime>17:17</departureTime><day>3</day><halt>2</halt><distance>2792</distance><latitude>12.97141</latitude><longitude>79.13831</longitude><isHalting>true</isHalting></TrainScheduleItem><TrainScheduleItem><serialNumber>15</serialNumber><stationCode>bnc</stationCode><stationName>bangalore cant</stationName><arrivalTime>21:15</arrivalTime><departureTime>last</departureTime><day>3</day><halt>0</halt><distance>3019</distance><latitude>12.991932</latitude><longitude>77.598311</longitude><isHalting>true</isHalting></TrainScheduleItem></TrainRecord>	<TrainDetails><Provider>erail</Provider><TrainName>KYQ BNC SUVIDHA</TrainName><TrainNumber>02510</TrainNumber><TrainAttributes><isPantryAvailable>false</isPantryAvailable><isCateringAvailable>false</isCateringAvailable><hasPrepaidTaxiService>false</hasPrepaidTaxiService><hasPrepaidAutoService>false</hasPrepaidAutoService><trainType>Suvidha</trainType><fareType>Superfast</fareType><pairTrainNumber>02509</pairTrainNumber><pairTrainName>Bnc Kyq Suvidha</pairTrainName><ClassesAvailable><Class>2A</Class><Class>3A</Class><Class>SL</Class></ClassesAvailable><RakeShareTrainNumbers><RakeShareTrainNumber /></RakeShareTrainNumbers><DaysRunning><Day>Tuesday</Day></DaysRunning><CoachComposition /></TrainAttributes></TrainDetails></Train>
<Train><TrainRecord><Provider>IndianRailways</Provider><TrainName>PUNE KYQ SPECIA</TrainName><TrainNumber>02511</TrainNumber><TrainScheduleItem><serialNumber>1</serialNumber><stationCode>pune</stationCode><stationName>PUNE JN</stationName><arrivalTime>Source</arrivalTime><departureTime>10:30</departureTime><day>1</day><halt /><distance>0</distance><latitude>18.52826</latitude><longitude>73.87435</longitude><isHalting>true</isHalting></TrainScheduleItem><TrainScheduleItem><serialNumber>2</serialNumber><stationCode>pnvl</stationCode><stationName>PANVEL</stationName><arrivalTime>13:00</arrivalTime><departureTime>13:05</departureTime><day>1</day><halt>5</halt><distance>121</distance><latitude>18.989677</latitude><longitude>73.12269</longitude><isHalting>true</isHalting></TrainScheduleItem><TrainScheduleItem><serialNumber>3</serialNumber><stationCode>nk</stationCode><stationName>NASIK ROAD</stationName><arrivalTime>16:27</arrivalTime><departureTime>16:32</departureTime><day>1</day><halt>5</halt><distance>291</distance><latitude>19.94796944</latitude><longitude>73.8417511</longitude><isHalting>true</isHalting></TrainScheduleItem><TrainScheduleItem><serialNumber>4</serialNumber><stationCode>bsl</stationCode><stationName>BHUSAVAL JN</stationName><arrivalTime>19:30</arrivalTime><departureTime>19:40</departureTime><day>1</day><halt>10</halt><distance>548</distance><latitude>21.047017</latitude><longitude>75.788381</longitude><isHalting>true</isHalting></TrainScheduleItem><TrainScheduleItem><serialNumber>5</serialNumber><stationCode>ngp</stationCode><stationName>NAGPUR</stationName><arrivalTime>01:20</arrivalTime><departureTime>01:30</departureTime><day>2</day><halt>10</halt><distance>941</distance><latitude>21.15233</latitude><longitude>79.08806</longitude><isHalting>true</isHalting></TrainScheduleItem><TrainScheduleItem><serialNumber>6</serialNumber><stationCode>g</stationCode><stationName>GONDIA JN</stationName><arrivalTime>03:51</arrivalTime><departureTime>03:53</departureTime><day>2</day><halt>2</halt><distance>1070</distance><latitude>21.46118927</latitude><longitude>80.19322968</longitude><isHalting>true</isHalting></TrainScheduleItem><TrainScheduleItem><serialNumber>7</serialNumber><stationCode>durg</stationCode><stationName>DURG</stationName><arrivalTime>06:35</arrivalTime><departureTime>06:40</departureTime><day>2</day><halt>5</halt><distance>1204</distance><latitude>21.19893074</latitude><longitude>81.29115295</longitude><isHalting>true</isHalting></TrainScheduleItem><TrainScheduleItem><serialNumber>8</serialNumber><stationCode>r</stationCode><stationName>RAIPUR JN</stationName><arrivalTime>07:35</arrivalTime><departureTime>07:45</departureTime><day>2</day><halt>10</halt><distance>1241</distance><latitude>29.15454</latitude><longitude>75.770727</longitude><isHalting>true</isHalting></TrainScheduleItem><TrainScheduleItem><serialNumber>9</serialNumber><stationCode>bsp</stationCode><stationName>BILASPUR JN</stationName><arrivalTime>09:45</arrivalTime><departureTime>09:55</departureTime><day>2</day><halt>10</halt><distance>1351</distance><latitude>22.05626</latitude><longitude>82.17303</longitude><isHalting>true</isHalting></TrainScheduleItem><TrainScheduleItem><serialNumber>10</serialNumber><stationCode>jsg</stationCode><stationName>JHARSUGUDA JN</stationName><arrivalTime>13:30</arrivalTime><departureTime>13:35</departureTime><day>2</day><halt>5</halt><distance>1557</distance><latitude>21.8610096</latitude><longitude>84.01898956</longitude><isHalting>true</isHalting></TrainScheduleItem><TrainScheduleItem><serialNumber>11</serialNumber><stationCode>rou</stationCode><stationName>ROURKELA</stationName><arrivalTime>14:50</arrivalTime><departureTime>15:05</departureTime><day>2</day><halt>15</halt><distance>1658</distance><latitude>22.22739</latitude><longitude>84.86294</longitude><isHalting>true</isHalting></TrainScheduleItem><TrainScheduleItem><serialNumber>12</serialNumber><stationCode>ckp</stationCode><stationName>CHAKRADHARPUR</stationName><arrivalTime>16:30</arrivalTime><departureTime>16:35</departureTime><day>2</day><halt>5</halt><distance>1759</distance><latitude>22.67828941</latitude><longitude>85.62796783</longitude><isHalting>true</isHalting></TrainScheduleItem><TrainScheduleItem><serialNumber>13</serialNumber><stationCode>prr</stationCode><stationName>PURULIA JN</stationName><arrivalTime>18:20</arrivalTime><departureTime>18:22</departureTime><day>2</day><halt>2</halt><distance>1878</distance><latitude>23.325432</latitude><longitude>86.377904</longitude><isHalting>true</isHalting></TrainScheduleItem><TrainScheduleItem><serialNumber>14</serialNumber><stationCode>joc</stationCode><stationName>JOYCHANDI PAHAR</stationName><arrivalTime>19:10</arrivalTime><departureTime>19:12</departureTime><day>2</day><halt>2</halt><distance>1917</distance><latitude>23.517187</latitude><longitude>86.681132</longitude><isHalting>true</isHalting></TrainScheduleItem><TrainScheduleItem><serialNumber>15</serialNumber><stationCode>asn</stationCode><stationName>ASANSOL JN</stationName><arrivalTime>20:10</arrivalTime><departureTime>20:20</departureTime><day>2</day><halt>10</halt><distance>1954</distance><latitude>23.690783</latitude><longitude>86.975767</longitude><isHalting>true</isHalting></TrainScheduleItem><TrainScheduleItem><serialNumber>16</serialNumber><stationCode>udl</stationCode><stationName>ANDAL JN</stationName><arrivalTime>21:35</arrivalTime><departureTime>22:05</departureTime><day>2</day><halt>30</halt><distance>1979</distance><latitude>23.57827</latitude><longitude>87.18122</longitude><isHalting>true</isHalting></TrainScheduleItem><TrainScheduleItem><serialNumber>17</serialNumber><stationCode>rph</stationCode><stationName>RAMPUR HAT</stationName><arrivalTime>00:38</arrivalTime><departureTime>00:40</departureTime><day>3</day><halt>2</halt><distance>2081</distance><latitude>24.17916679</latitude><longitude>87.78194427</longitude><isHalting>true</isHalting></TrainScheduleItem><TrainScheduleItem><serialNumber>18</serialNumber><stationCode>mldt</stationCode><stationName>MALDA TOWN</stationName><arrivalTime>04:00</arrivalTime><departureTime>04:10</departureTime><day>3</day><halt>10</halt><distance>2202</distance><latitude>25.015885</latitude><longitude>88.13049</longitude><isHalting>true</isHalting></TrainScheduleItem><TrainScheduleItem><serialNumber>19</serialNumber><stationCode>kne</stationCode><stationName>KISHANGANJ</stationName><arrivalTime>06:00</arrivalTime><departureTime>06:02</departureTime><day>3</day><halt>2</halt><distance>2347</distance><latitude>26.098179</latitude><longitude>87.949714</longitude><isHalting>true</isHalting></TrainScheduleItem><TrainScheduleItem><serialNumber>20</serialNumber><stationCode>njp</stationCode><stationName>NEW JALPAIGURI</stationName><arrivalTime>07:45</arrivalTime><departureTime>08:00</departureTime><day>3</day><halt>15</halt><distance>2434</distance><latitude>26.68445</latitude><longitude>88.44335</longitude><isHalting>true</isHalting></TrainScheduleItem><TrainScheduleItem><serialNumber>21</serialNumber><stationCode>ncb</stationCode><stationName>NEW COOCH BEHAR</stationName><arrivalTime>09:55</arrivalTime><departureTime>09:57</departureTime><day>3</day><halt>2</halt><distance>2561</distance><latitude>26.35290909</latitude><longitude>89.46955109</longitude><isHalting>true</isHalting></TrainScheduleItem><TrainScheduleItem><serialNumber>22</serialNumber><stationCode>noq</stationCode><stationName>NEW ALIPURDUAR</stationName><arrivalTime>10:25</arrivalTime><departureTime>10:27</departureTime><day>3</day><halt>2</halt><distance>2579</distance><latitude>26.486601</latitude><longitude>89.541435</longitude><isHalting>true</isHalting></TrainScheduleItem><TrainScheduleItem><serialNumber>23</serialNumber><stationCode>nbq</stationCode><stationName>NEW BONGAIGAON</stationName><arrivalTime>12:32</arrivalTime><departureTime>12:37</departureTime><day>3</day><halt>5</halt><distance>2686</distance><latitude>26.475781</latitude><longitude>90.536184</longitude><isHalting>true</isHalting></TrainScheduleItem><TrainScheduleItem><serialNumber>24</serialNumber><stationCode>glpt</stationCode><stationName>GOALPARA TOWN</stationName><arrivalTime>13:16</arrivalTime><departureTime>13:18</departureTime><day>3</day><halt>2</halt><distance>2766</distance><latitude>26.12732</latitude><longitude>90.6211</longitude><isHalting>true</isHalting></TrainScheduleItem><TrainScheduleItem><serialNumber>25</serialNumber><stationCode>kyq</stationCode><stationName>KAMAKHYA</stationName><arrivalTime>15:25</arrivalTime><departureTime>Destination</departureTime><day>3</day><halt /><distance>2888</distance><latitude>26.15638</latitude><longitude>91.69233</longitude><isHalting>true</isHalting></TrainScheduleItem></TrainRecord>	<TrainDetails><Provider>IndianRailways</Provider><TrainName>PUNE KYQ SPECIA</TrainName><TrainNumber>02511</TrainNumber><TrainAttributes><isPantryAvailable>false</isPantryAvailable><isCateringAvailable>false</isCateringAvailable><hasPrepaidTaxiService>false</hasPrepaidTaxiService><hasPrepaidAutoService>false</hasPrepaidAutoService><ClassesAvailable /><RakeShareTrainNumbers /><DaysRunning><Day>Thursday</Day></DaysRunning><CoachComposition /></TrainAttributes></TrainDetails></Train>
<Train><TrainRecord><Provider>IndianRailways</Provider><TrainName>KYQ PUNE SPECIA</TrainName><TrainNumber>02512</TrainNumber><TrainScheduleItem><serialNumber>1</serialNumber><stationCode>kyq</stationCode><stationName>KAMAKHYA</stationName><arrivalTime>Source</arrivalTime><departureTime>23:00</departureTime><day>1</day><halt /><distance>0</distance><latitude>26.15638</latitude><longitude>91.69233</longitude><isHalting>true</isHalting></TrainScheduleItem><TrainScheduleItem><serialNumber>2</serialNumber><stationCode>glpt</stationCode><stationName>GOALPARA TOWN</stationName><arrivalTime>00:35</arrivalTime><departureTime>00:37</departureTime><day>2</day><halt>2</halt><distance>122</distance><latitude>26.12732</latitude><longitude>90.6211</longitude><isHalting>true</isHalting></TrainScheduleItem><TrainScheduleItem><serialNumber>3</serialNumber><stationCode>nbq</stationCode><stationName>NEW BONGAIGAON</stationName><arrivalTime>01:50</arrivalTime><departureTime>01:55</departureTime><day>2</day><halt>5</halt><distance>202</distance><latitude>26.475781</latitude><longitude>90.536184</longitude><isHalting>true</isHalting></TrainScheduleItem><TrainScheduleItem><serialNumber>4</serialNumber><stationCode>noq</stationCode><stationName>NEW ALIPURDUAR</stationName><arrivalTime>03:38</arrivalTime><departureTime>03:40</departureTime><day>2</day><halt>2</halt><distance>309</distance><latitude>26.486601</latitude><longitude>89.541435</longitude><isHalting>true</isHalting></TrainScheduleItem><TrainScheduleItem><serialNumber>5</serialNumber><stationCode>ncb</stationCode><stationName>NEW COOCH BEHAR</stationName><arrivalTime>04:05</arrivalTime><departureTime>04:07</departureTime><day>2</day><halt>2</halt><distance>327</distance><latitude>26.35290909</latitude><longitude>89.46955109</longitude><isHalting>true</isHalting></TrainScheduleItem><TrainScheduleItem><serialNumber>6</serialNumber><stationCode>njp</stationCode><stationName>NEW JALPAIGURI</stationName><arrivalTime>06:30</arrivalTime><departureTime>06:45</departureTime><day>2</day><halt>15</halt><distance>454</distance><latitude>26.68445</latitude><longitude>88.44335</longitude><isHalting>true</isHalting></TrainScheduleItem><TrainScheduleItem><serialNumber>7</serialNumber><stationCode>kne</stationCode><stationName>KISHANGANJ</stationName><arrivalTime>07:50</arrivalTime><departureTime>07:52</departureTime><day>2</day><halt>2</halt><distance>541</distance><latitude>26.098179</latitude><longitude>87.949714</longitude><isHalting>true</isHalting></TrainScheduleItem><TrainScheduleItem><serialNumber>8</serialNumber><stationCode>mldt</stationCode><stationName>MALDA TOWN</stationName><arrivalTime>11:05</arrivalTime><departureTime>11:10</departureTime><day>2</day><halt>5</halt><distance>686</distance><latitude>25.015885</latitude><longitude>88.13049</longitude><isHalting>true</isHalting></TrainScheduleItem><TrainScheduleItem><serialNumber>9</serialNumber><stationCode>rph</stationCode><stationName>RAMPUR HAT</stationName><arrivalTime>13:28</arrivalTime><departureTime>13:30</departureTime><day>2</day><halt>2</halt><distance>807</distance><latitude>24.17916679</latitude><longitude>87.78194427</longitude><isHalting>true</isHalting></TrainScheduleItem><TrainScheduleItem><serialNumber>10</serialNumber><stationCode>udl</stationCode><stationName>ANDAL JN</stationName><arrivalTime>16:40</arrivalTime><departureTime>17:05</departureTime><day>2</day><halt>25</halt><distance>909</distance><latitude>23.57827</latitude><longitude>87.18122</longitude><isHalting>true</isHalting></TrainScheduleItem><TrainScheduleItem><serialNumber>11</serialNumber><stationCode>asn</stationCode><stationName>ASANSOL JN</stationName><arrivalTime>17:30</arrivalTime><departureTime>17:40</departureTime><day>2</day><halt>10</halt><distance>934</distance><latitude>23.690783</latitude><longitude>86.975767</longitude><isHalting>true</isHalting></TrainScheduleItem><TrainScheduleItem><serialNumber>12</serialNumber><stationCode>joc</stationCode><stationName>JOYCHANDI PAHAR</stationName><arrivalTime>18:35</arrivalTime><departureTime>18:40</departureTime><day>2</day><halt>5</halt><distance>971</distance><latitude>23.517187</latitude><longitude>86.681132</longitude><isHalting>true</isHalting></TrainScheduleItem><TrainScheduleItem><serialNumber>13</serialNumber><stationCode>prr</stationCode><stationName>PURULIA JN</stationName><arrivalTime>19:20</arrivalTime><departureTime>19:22</departureTime><day>2</day><halt>2</halt><distance>1010</distance><latitude>23.325432</latitude><longitude>86.377904</longitude><isHalting>true</isHalting></TrainScheduleItem><TrainScheduleItem><serialNumber>14</serialNumber><stationCode>ckp</stationCode><stationName>CHAKRADHARPUR</stationName><arrivalTime>21:00</arrivalTime><departureTime>21:05</departureTime><day>2</day><halt>5</halt><distance>1129</distance><latitude>22.67828941</latitude><longitude>85.62796783</longitude><isHalting>true</isHalting></TrainScheduleItem><TrainScheduleItem><serialNumber>15</serialNumber><stationCode>rou</stationCode><stationName>ROURKELA</stationName><arrivalTime>22:40</arrivalTime><departureTime>22:45</departureTime><day>2</day><halt>5</halt><distance>1230</distance><latitude>22.22739</latitude><longitude>84.86294</longitude><isHalting>true</isHalting></TrainScheduleItem><TrainScheduleItem><serialNumber>16</serialNumber><stationCode>jsg</stationCode><stationName>JHARSUGUDA JN</stationName><arrivalTime>00:13</arrivalTime><departureTime>00:15</departureTime><day>3</day><halt>2</halt><distance>1331</distance><latitude>21.8610096</latitude><longitude>84.01898956</longitude><isHalting>true</isHalting></TrainScheduleItem><TrainScheduleItem><serialNumber>17</serialNumber><stationCode>bsp</stationCode><stationName>BILASPUR JN</stationName><arrivalTime>03:15</arrivalTime><departureTime>03:30</departureTime><day>3</day><halt>15</halt><distance>1537</distance><latitude>22.05626</latitude><longitude>82.17303</longitude><isHalting>true</isHalting></TrainScheduleItem><TrainScheduleItem><serialNumber>18</serialNumber><stationCode>byt</stationCode><stationName>BHATAPARA</stationName><arrivalTime>04:10</arrivalTime><departureTime>04:12</departureTime><day>3</day><halt>2</halt><distance>1583</distance><latitude>21.73358917</latitude><longitude>81.94638062</longitude><isHalting>true</isHalting></TrainScheduleItem><TrainScheduleItem><serialNumber>19</serialNumber><stationCode>r</stationCode><stationName>RAIPUR JN</stationName><arrivalTime>05:10</arrivalTime><departureTime>05:20</departureTime><day>3</day><halt>10</halt><distance>1647</distance><latitude>29.15454</latitude><longitude>75.770727</longitude><isHalting>true</isHalting></TrainScheduleItem><TrainScheduleItem><serialNumber>20</serialNumber><stationCode>durg</stationCode><stationName>DURG</stationName><arrivalTime>06:15</arrivalTime><departureTime>06:20</departureTime><day>3</day><halt>5</halt><distance>1684</distance><latitude>21.19893074</latitude><longitude>81.29115295</longitude><isHalting>true</isHalting></TrainScheduleItem><TrainScheduleItem><serialNumber>21</serialNumber><stationCode>g</stationCode><stationName>GONDIA JN</stationName><arrivalTime>08:30</arrivalTime><departureTime>08:35</departureTime><day>3</day><halt>5</halt><distance>1818</distance><latitude>21.46118927</latitude><longitude>80.19322968</longitude><isHalting>true</isHalting></TrainScheduleItem><TrainScheduleItem><serialNumber>22</serialNumber><stationCode>ngp</stationCode><stationName>NAGPUR</stationName><arrivalTime>11:15</arrivalTime><departureTime>11:25</departureTime><day>3</day><halt>10</halt><distance>1948</distance><latitude>21.15233</latitude><longitude>79.08806</longitude><isHalting>true</isHalting></TrainScheduleItem><TrainScheduleItem><serialNumber>23</serialNumber><stationCode>bsl</stationCode><stationName>BHUSAVAL JN</stationName><arrivalTime>16:30</arrivalTime><departureTime>16:40</departureTime><day>3</day><halt>10</halt><distance>2340</distance><latitude>21.047017</latitude><longitude>75.788381</longitude><isHalting>true</isHalting></TrainScheduleItem><TrainScheduleItem><serialNumber>24</serialNumber><stationCode>nk</stationCode><stationName>NASIK ROAD</stationName><arrivalTime>19:27</arrivalTime><departureTime>19:30</departureTime><day>3</day><halt>3</halt><distance>2597</distance><latitude>19.94796944</latitude><longitude>73.8417511</longitude><isHalting>true</isHalting></TrainScheduleItem><TrainScheduleItem><serialNumber>25</serialNumber><stationCode>pnvl</stationCode><stationName>PANVEL</stationName><arrivalTime>23:35</arrivalTime><departureTime>23:40</departureTime><day>3</day><halt>5</halt><distance>2768</distance><latitude>18.989677</latitude><longitude>73.12269</longitude><isHalting>true</isHalting></TrainScheduleItem><TrainScheduleItem><serialNumber>26</serialNumber><stationCode>pune</stationCode><stationName>PUNE JN</stationName><arrivalTime>02:45</arrivalTime><departureTime>Destination</departureTime><day>4</day><halt /><distance>2888</distance><latitude>18.52826</latitude><longitude>73.87435</longitude><isHalting>true</isHalting></TrainScheduleItem></TrainRecord>	<TrainDetails><Provider>IndianRailways</Provider><TrainName>KYQ PUNE SPECIA</TrainName><TrainNumber>02512</TrainNumber><TrainAttributes><isPantryAvailable>false</isPantryAvailable><isCateringAvailable>false</isCateringAvailable><hasPrepaidTaxiService>false</hasPrepaidTaxiService><hasPrepaidAutoService>false</hasPrepaidAutoService><ClassesAvailable /><RakeShareTrainNumbers /><DaysRunning><Day>Monday</Day></DaysRunning><CoachComposition /></TrainAttributes></TrainDetails></Train>
<Train><TrainRecord><Provider>erail</Provider><TrainName>vsg sbc link ex</TrainName><TrainNumber>02779</TrainNumber><TrainScheduleItem><serialNumber>1</serialNumber><stationCode>vsg</stationCode><stationName>vasco da gama</stationName><arrivalTime>first</arrivalTime><departureTime>15:10</departureTime><day>1</day><halt>0</halt><distance>0</distance><latitude>15.39629</latitude><longitude>73.81187</longitude><isHalting>true</isHalting></TrainScheduleItem><TrainScheduleItem><serialNumber>2</serialNumber><stationCode>mao</stationCode><stationName>madgaon</stationName><arrivalTime>15:45</arrivalTime><departureTime>15:50</departureTime><day>1</day><halt>5</halt><distance>28</distance><latitude>15.26739025</latitude><longitude>73.97136688</longitude><isHalting>true</isHalting></TrainScheduleItem><TrainScheduleItem><serialNumber>3</serialNumber><stationCode>svm</stationCode><stationName>sanvordem chuch</stationName><arrivalTime>15:58</arrivalTime><departureTime>16:00</departureTime><day>1</day><halt>2</halt><distance>44</distance><latitude /><longitude /><isHalting>true</isHalting></TrainScheduleItem><TrainScheduleItem><serialNumber>4</serialNumber><stationCode>qlm</stationCode><stationName>kulem</stationName><arrivalTime>16:30</arrivalTime><departureTime>16:35</departureTime><day>1</day><halt>5</halt><distance>62</distance><latitude>15.333375</latitude><longitude>74.243793</longitude><isHalting>true</isHalting></TrainScheduleItem><TrainScheduleItem><serialNumber>5</serialNumber><stationCode>clr</stationCode><stationName>castle rock</stationName><arrivalTime>17:35</arrivalTime><departureTime>17:40</departureTime><day>1</day><halt>5</halt><distance>121</distance><latitude>15.39883995</latitude><longitude>74.33380127</longitude><isHalting>true</isHalting></TrainScheduleItem><TrainScheduleItem><serialNumber>6</serialNumber><stationCode>ld</stationCode><stationName>londa jn</stationName><arrivalTime>18:35</arrivalTime><departureTime>19:50</departureTime><day>1</day><halt>75</halt><distance>146</distance><latitude>15.44851971</latitude><longitude>74.49526215</longitude><isHalting>true</isHalting></TrainScheduleItem><TrainScheduleItem><serialNumber>7</serialNumber><stationCode>lwr</stationCode><stationName>alanavar jn</stationName><arrivalTime>20:43</arrivalTime><departureTime>20:45</departureTime><day>1</day><halt>2</halt><distance>179</distance><latitude>15.424353</latitude><longitude>74.737994</longitude><isHalting>true</isHalting></TrainScheduleItem><TrainScheduleItem><serialNumber>8</serialNumber><stationCode>dwr</stationCode><stationName>dharwad</stationName><arrivalTime>21:43</arrivalTime><departureTime>21:45</departureTime><day>1</day><halt>2</halt><distance>216</distance><latitude>15.441793</latitude><longitude>75.003801</longitude><isHalting>true</isHalting></TrainScheduleItem><TrainScheduleItem><serialNumber>9</serialNumber><stationCode>ubl</stationCode><stationName>hubballi jn</stationName><arrivalTime>22:35</arrivalTime><departureTime>22:45</departureTime><day>1</day><halt>10</halt><distance>236</distance><latitude>15.3500795</latitude><longitude>75.1480331</longitude><isHalting>true</isHalting></TrainScheduleItem><TrainScheduleItem><serialNumber>10</serialNumber><stationCode>hvr</stationCode><stationName>haveri</stationName><arrivalTime>23:49</arrivalTime><departureTime>23:50</departureTime><day>1</day><halt>1</halt><distance>311</distance><latitude>14.79465</latitude><longitude>75.41081</longitude><isHalting>true</isHalting></TrainScheduleItem><TrainScheduleItem><serialNumber>11</serialNumber><stationCode>rnr</stationCode><stationName>ranibennur</stationName><arrivalTime>00:19</arrivalTime><departureTime>00:20</departureTime><day>2</day><halt>1</halt><distance>344</distance><latitude>14.62552</latitude><longitude>75.63543</longitude><isHalting>true</isHalting></TrainScheduleItem><TrainScheduleItem><serialNumber>12</serialNumber><stationCode>hrr</stationCode><stationName>harihar</stationName><arrivalTime>00:43</arrivalTime><departureTime>00:45</departureTime><day>2</day><halt>2</halt><distance>367</distance><latitude>14.515589</latitude><longitude>75.811644</longitude><isHalting>true</isHalting></TrainScheduleItem><TrainScheduleItem><serialNumber>13</serialNumber><stationCode>dvg</stationCode><stationName>davangere</stationName><arrivalTime>01:07</arrivalTime><departureTime>01:10</departureTime><day>2</day><halt>3</halt><distance>380</distance><latitude>14.468103</latitude><longitude>75.920177</longitude><isHalting>true</isHalting></TrainScheduleItem><TrainScheduleItem><serialNumber>14</serialNumber><stationCode>rrb</stationCode><stationName>birur jn</stationName><arrivalTime>02:48</arrivalTime><departureTime>02:50</departureTime><day>2</day><halt>2</halt><distance>495</distance><latitude>13.59323025</latitude><longitude>75.97354126</longitude><isHalting>true</isHalting></TrainScheduleItem><TrainScheduleItem><serialNumber>15</serialNumber><stationCode>dru</stationCode><stationName>kadur</stationName><arrivalTime>02:59</arrivalTime><departureTime>03:00</departureTime><day>2</day><halt>1</halt><distance>501</distance><latitude>13.55247021</latitude><longitude>76.00888824</longitude><isHalting>true</isHalting></TrainScheduleItem><TrainScheduleItem><serialNumber>16</serialNumber><stationCode>ask</stationCode><stationName>arsikere jn</stationName><arrivalTime>03:45</arrivalTime><departureTime>03:50</departureTime><day>2</day><halt>5</halt><distance>540</distance><latitude>13.31389046</latitude><longitude>76.25353241</longitude><isHalting>true</isHalting></TrainScheduleItem><TrainScheduleItem><serialNumber>17</serialNumber><stationCode>ttr</stationCode><stationName>tiptur</stationName><arrivalTime>04:16</arrivalTime><departureTime>04:17</departureTime><day>2</day><halt>1</halt><distance>565</distance><latitude>13.2559404</latitude><longitude>76.4749527</longitude><isHalting>true</isHalting></TrainScheduleItem><TrainScheduleItem><serialNumber>18</serialNumber><stationCode>amsa</stationCode><stationName>ammasandra</stationName><arrivalTime>04:44</arrivalTime><departureTime>04:45</departureTime><day>2</day><halt>1</halt><distance>592</distance><latitude>13.26494</latitude><longitude>76.71197</longitude><isHalting>true</isHalting></TrainScheduleItem><TrainScheduleItem><serialNumber>19</serialNumber><stationCode>tk</stationCode><stationName>tumkur</stationName><arrivalTime>05:28</arrivalTime><departureTime>05:30</departureTime><day>2</day><halt>2</halt><distance>636</distance><latitude>13.33426952</latitude><longitude>77.10201263</longitude><isHalting>true</isHalting></TrainScheduleItem><TrainScheduleItem><serialNumber>20</serialNumber><stationCode>ypr</stationCode><stationName>yesvantpur jn</stationName><arrivalTime>06:39</arrivalTime><departureTime>06:41</departureTime><day>2</day><halt>2</halt><distance>700</distance><latitude>13.0228901</latitude><longitude>77.5527191</longitude><isHalting>true</isHalting></TrainScheduleItem><TrainScheduleItem><serialNumber>21</serialNumber><stationCode>sbc</stationCode><stationName>bengaluru city</stationName><arrivalTime>07:00</arrivalTime><departureTime>last</departureTime><day>2</day><halt>0</halt><distance>705</distance><latitude>12.977814</latitude><longitude>77.568586</longitude><isHalting>true</isHalting></TrainScheduleItem></TrainRecord>	<TrainDetails><Provider>erail</Provider><TrainName>VSG SBC LINK EX</TrainName><TrainNumber>02779</TrainNumber><TrainAttributes><isPantryAvailable>false</isPantryAvailable><isCateringAvailable>false</isCateringAvailable><hasPrepaidTaxiService>false</hasPrepaidTaxiService><hasPrepaidAutoService>false</hasPrepaidAutoService><trainType>Link</trainType><fareType>Composite</fareType><pairTrainNumber>06948</pairTrainNumber><pairTrainName>Ubl Vsg Link Ex</pairTrainName><ClassesAvailable><Class>3A</Class><Class>SL</Class><Class>GN</Class></ClassesAvailable><RakeShareTrainNumbers><RakeShareTrainNumber /></RakeShareTrainNumbers><DaysRunning><Day>Sunday</Day><Day>Monday</Day><Day>Tuesday</Day><Day>Wednesday</Day><Day>Thursday</Day><Day>Friday</Day><Day>Saturday</Day></DaysRunning><CoachComposition /></TrainAttributes></TrainDetails></Train>
<Train><TrainRecord><Provider>IndianRailways</Provider><TrainName>HWH TATA AC SPL</TrainName><TrainNumber>02813</TrainNumber><TrainScheduleItem><serialNumber>1</serialNumber><stationCode>hwh</stationCode><stationName>HOWRAH JN</stationName><arrivalTime>Source</arrivalTime><departureTime>19:20</departureTime><day>1</day><halt /><distance>0</distance><latitude>22.584108</latitude><longitude>88.341202</longitude><isHalting>true</isHalting></TrainScheduleItem><TrainScheduleItem><serialNumber>2</serialNumber><stationCode>kgp</stationCode><stationName>KHARAGPUR JN</stationName><arrivalTime>21:08</arrivalTime><departureTime>21:10</departureTime><day>1</day><halt>2</halt><distance>116</distance><latitude>22.340005</latitude><longitude>87.324902</longitude><isHalting>true</isHalting></TrainScheduleItem><TrainScheduleItem><serialNumber>3</serialNumber><stationCode>jgm</stationCode><stationName>JHARGRAM</stationName><arrivalTime>21:46</arrivalTime><departureTime>21:48</departureTime><day>1</day><halt>2</halt><distance>154</distance><latitude>22.45495033</latitude><longitude>86.99823761</longitude><isHalting>true</isHalting></TrainScheduleItem><TrainScheduleItem><serialNumber>4</serialNumber><stationCode>cku</stationCode><stationName>CHAKULIA</stationName><arrivalTime>22:11</arrivalTime><departureTime>22:13</departureTime><day>1</day><halt>2</halt><distance>183</distance><latitude>22.47784996</latitude><longitude>86.72180176</longitude><isHalting>true</isHalting></TrainScheduleItem><TrainScheduleItem><serialNumber>5</serialNumber><stationCode>gts</stationCode><stationName>GHATSILA</stationName><arrivalTime>22:34</arrivalTime><departureTime>22:36</departureTime><day>1</day><halt>2</halt><distance>214</distance><latitude>22.58581924</latitude><longitude>86.47886658</longitude><isHalting>true</isHalting></TrainScheduleItem><TrainScheduleItem><serialNumber>6</serialNumber><stationCode>tata</stationCode><stationName>TATANAGAR JN</stationName><arrivalTime>23:15</arrivalTime><departureTime>Destination</departureTime><day>1</day><halt /><distance>250</distance><latitude>22.76820946</latitude><longitude>86.2000885</longitude><isHalting>true</isHalting></TrainScheduleItem></TrainRecord>	<TrainDetails><Provider>IndianRailways</Provider><TrainName>HWH TATA AC SPL</TrainName><TrainNumber>02813</TrainNumber><TrainAttributes><isPantryAvailable>false</isPantryAvailable><isCateringAvailable>false</isCateringAvailable><hasPrepaidTaxiService>false</hasPrepaidTaxiService><hasPrepaidAutoService>false</hasPrepaidAutoService><ClassesAvailable /><RakeShareTrainNumbers /><DaysRunning><Day>Tuesday</Day><Day>Friday</Day></DaysRunning><CoachComposition /></TrainAttributes></TrainDetails></Train>
<Train><TrainRecord><Provider>IndianRailways</Provider><TrainName>TATA HWH AC SPL</TrainName><TrainNumber>02814</TrainNumber><TrainScheduleItem><serialNumber>1</serialNumber><stationCode>tata</stationCode><stationName>TATANAGAR JN</stationName><arrivalTime>Source</arrivalTime><departureTime>06:55</departureTime><day>1</day><halt /><distance>0</distance><latitude>22.76820946</latitude><longitude>86.2000885</longitude><isHalting>true</isHalting></TrainScheduleItem><TrainScheduleItem><serialNumber>2</serialNumber><stationCode>gts</stationCode><stationName>GHATSILA</stationName><arrivalTime>07:27</arrivalTime><departureTime>07:29</departureTime><day>1</day><halt>2</halt><distance>37</distance><latitude>22.58581924</latitude><longitude>86.47886658</longitude><isHalting>true</isHalting></TrainScheduleItem><TrainScheduleItem><serialNumber>3</serialNumber><stationCode>cku</stationCode><stationName>CHAKULIA</stationName><arrivalTime>07:50</arrivalTime><departureTime>07:52</departureTime><day>1</day><halt>2</halt><distance>67</distance><latitude>22.47784996</latitude><longitude>86.72180176</longitude><isHalting>true</isHalting></TrainScheduleItem><TrainScheduleItem><serialNumber>4</serialNumber><stationCode>jgm</stationCode><stationName>JHARGRAM</stationName><arrivalTime>08:13</arrivalTime><departureTime>08:15</departureTime><day>1</day><halt>2</halt><distance>96</distance><latitude>22.45495033</latitude><longitude>86.99823761</longitude><isHalting>true</isHalting></TrainScheduleItem><TrainScheduleItem><serialNumber>5</serialNumber><stationCode>kgp</stationCode><stationName>KHARAGPUR JN</stationName><arrivalTime>08:58</arrivalTime><departureTime>09:00</departureTime><day>1</day><halt>2</halt><distance>135</distance><latitude>22.340005</latitude><longitude>87.324902</longitude><isHalting>true</isHalting></TrainScheduleItem><TrainScheduleItem><serialNumber>6</serialNumber><stationCode>src</stationCode><stationName>SANTRAGACHI JN</stationName><arrivalTime>10:32</arrivalTime><departureTime>10:34</departureTime><day>1</day><halt>2</halt><distance>242</distance><latitude>22.58249092</latitude><longitude>88.28408051</longitude><isHalting>true</isHalting></TrainScheduleItem><TrainScheduleItem><serialNumber>7</serialNumber><stationCode>hwh</stationCode><stationName>HOWRAH JN</stationName><arrivalTime>11:10</arrivalTime><departureTime>Destination</departureTime><day>1</day><halt /><distance>250</distance><latitude>22.584108</latitude><longitude>88.341202</longitude><isHalting>true</isHalting></TrainScheduleItem></TrainRecord>	<TrainDetails><Provider>IndianRailways</Provider><TrainName>TATA HWH AC SPL</TrainName><TrainNumber>02814</TrainNumber><TrainAttributes><isPantryAvailable>false</isPantryAvailable><isCateringAvailable>false</isCateringAvailable><hasPrepaidTaxiService>false</hasPrepaidTaxiService><hasPrepaidAutoService>false</hasPrepaidAutoService><ClassesAvailable /><RakeShareTrainNumbers /><DaysRunning><Day>Wednesday</Day><Day>Saturday</Day></DaysRunning><CoachComposition /></TrainAttributes></TrainDetails></Train>
<Train><TrainRecord><Provider>erail</Provider><TrainName>hwh puri sf spl</TrainName><TrainNumber>02837</TrainNumber><TrainScheduleItem><serialNumber>1</serialNumber><stationCode>hwh</stationCode><stationName>howrah jn</stationName><arrivalTime>first</arrivalTime><departureTime>20:40</departureTime><day>1</day><halt>0</halt><distance>0</distance><latitude>22.584108</latitude><longitude>88.341202</longitude><isHalting>true</isHalting></TrainScheduleItem><TrainScheduleItem><serialNumber>2</serialNumber><stationCode>kgp</stationCode><stationName>kharagpur jn</stationName><arrivalTime>22:15</arrivalTime><departureTime>22:20</departureTime><day>1</day><halt>5</halt><distance>116</distance><latitude>22.340005</latitude><longitude>87.324902</longitude><isHalting>true</isHalting></TrainScheduleItem><TrainScheduleItem><serialNumber>3</serialNumber><stationCode>bls</stationCode><stationName>balasore</stationName><arrivalTime>23:45</arrivalTime><departureTime>23:47</departureTime><day>1</day><halt>2</halt><distance>234</distance><latitude>21.50121</latitude><longitude>86.91965</longitude><isHalting>true</isHalting></TrainScheduleItem><TrainScheduleItem><serialNumber>4</serialNumber><stationCode>bhc</stationCode><stationName>bhadrakh</stationName><arrivalTime>00:38</arrivalTime><departureTime>00:40</departureTime><day>2</day><halt>2</halt><distance>296</distance><latitude>21.091218</latitude><longitude>86.515761</longitude><isHalting>true</isHalting></TrainScheduleItem><TrainScheduleItem><serialNumber>5</serialNumber><stationCode>jjkr</stationCode><stationName>jajpur keonjhar road</stationName><arrivalTime>01:00</arrivalTime><departureTime>01:02</departureTime><day>2</day><halt>2</halt><distance>340</distance><latitude>20.94458</latitude><longitude>86.13623</longitude><isHalting>true</isHalting></TrainScheduleItem><TrainScheduleItem><serialNumber>6</serialNumber><stationCode>ctc</stationCode><stationName>cuttack</stationName><arrivalTime>01:40</arrivalTime><departureTime>01:42</departureTime><day>2</day><halt>2</halt><distance>412</distance><latitude>20.46397</latitude><longitude>85.90008</longitude><isHalting>true</isHalting></TrainScheduleItem><TrainScheduleItem><serialNumber>7</serialNumber><stationCode>bbs</stationCode><stationName>bhubaneswar</stationName><arrivalTime>02:15</arrivalTime><departureTime>02:20</departureTime><day>2</day><halt>5</halt><distance>439</distance><latitude>20.266287</latitude><longitude>85.843472</longitude><isHalting>true</isHalting></TrainScheduleItem><TrainScheduleItem><serialNumber>8</serialNumber><stationCode>kur</stationCode><stationName>khurda road jn</stationName><arrivalTime>02:50</arrivalTime><departureTime>02:55</departureTime><day>2</day><halt>5</halt><distance>458</distance><latitude>20.153218</latitude><longitude>85.708103</longitude><isHalting>true</isHalting></TrainScheduleItem><TrainScheduleItem><serialNumber>9</serialNumber><stationCode>puri</stationCode><stationName>puri</stationName><arrivalTime>04:10</arrivalTime><departureTime>last</departureTime><day>2</day><halt>0</halt><distance>502</distance><latitude>19.80735</latitude><longitude>85.8385</longitude><isHalting>true</isHalting></TrainScheduleItem></TrainRecord>	<TrainDetails><Provider>erail</Provider><TrainName>HWH PURI SF SPL</TrainName><TrainNumber>02837</TrainNumber><TrainAttributes><isPantryAvailable>false</isPantryAvailable><isCateringAvailable>false</isCateringAvailable><hasPrepaidTaxiService>false</hasPrepaidTaxiService><hasPrepaidAutoService>false</hasPrepaidAutoService><trainType>Special</trainType><fareType>Superfast</fareType><pairTrainNumber>02838</pairTrainNumber><pairTrainName>Puri Hwh Sf Spl</pairTrainName><ClassesAvailable><Class>2A</Class><Class>3A</Class><Class>SL</Class><Class>GN</Class></ClassesAvailable><RakeShareTrainNumbers><RakeShareTrainNumber /></RakeShareTrainNumbers><DaysRunning><Day>Thursday</Day></DaysRunning><CoachComposition /></TrainAttributes></TrainDetails></Train>
<Train><TrainRecord><Provider>IndianRailways</Provider><TrainName>PURI HWH SF SPL</TrainName><TrainNumber>02838</TrainNumber><TrainScheduleItem><serialNumber>1</serialNumber><stationCode>puri</stationCode><stationName>PURI</stationName><arrivalTime>Source</arrivalTime><departureTime>19:45</departureTime><day>1</day><halt /><distance>0</distance><latitude>19.80735</latitude><longitude>85.8385</longitude><isHalting>true</isHalting></TrainScheduleItem><TrainScheduleItem><serialNumber>2</serialNumber><stationCode>kur</stationCode><stationName>KHURDA ROAD JN</stationName><arrivalTime>20:50</arrivalTime><departureTime>20:55</departureTime><day>1</day><halt>5</halt><distance>44</distance><latitude>20.153218</latitude><longitude>85.708103</longitude><isHalting>true</isHalting></TrainScheduleItem><TrainScheduleItem><serialNumber>3</serialNumber><stationCode>bbs</stationCode><stationName>BHUBANESWAR</stationName><arrivalTime>21:15</arrivalTime><departureTime>21:20</departureTime><day>1</day><halt>5</halt><distance>63</distance><latitude>20.266287</latitude><longitude>85.843472</longitude><isHalting>true</isHalting></TrainScheduleItem><TrainScheduleItem><serialNumber>4</serialNumber><stationCode>ctc</stationCode><stationName>CUTTACK</stationName><arrivalTime>21:50</arrivalTime><departureTime>21:52</departureTime><day>1</day><halt>2</halt><distance>91</distance><latitude>20.46397</latitude><longitude>85.90008</longitude><isHalting>true</isHalting></TrainScheduleItem><TrainScheduleItem><serialNumber>5</serialNumber><stationCode>jjkr</stationCode><stationName>JAJPUR K ROAD</stationName><arrivalTime>23:20</arrivalTime><departureTime>23:22</departureTime><day>1</day><halt>2</halt><distance>163</distance><latitude>20.94458</latitude><longitude>86.13623</longitude><isHalting>true</isHalting></TrainScheduleItem><TrainScheduleItem><serialNumber>6</serialNumber><stationCode>bhc</stationCode><stationName>BHADRAK</stationName><arrivalTime>23:50</arrivalTime><departureTime>23:52</departureTime><day>1</day><halt>2</halt><distance>206</distance><latitude>21.091218</latitude><longitude>86.515761</longitude><isHalting>true</isHalting></TrainScheduleItem><TrainScheduleItem><serialNumber>7</serialNumber><stationCode>bls</stationCode><stationName>BALASORE</stationName><arrivalTime>00:38</arrivalTime><departureTime>00:40</departureTime><day>2</day><halt>2</halt><distance>268</distance><latitude>21.50121</latitude><longitude>86.91965</longitude><isHalting>true</isHalting></TrainScheduleItem><TrainScheduleItem><serialNumber>8</serialNumber><stationCode>kgp</stationCode><stationName>KHARAGPUR JN</stationName><arrivalTime>02:25</arrivalTime><departureTime>02:30</departureTime><day>2</day><halt>5</halt><distance>387</distance><latitude>22.340005</latitude><longitude>87.324902</longitude><isHalting>true</isHalting></TrainScheduleItem><TrainScheduleItem><serialNumber>9</serialNumber><stationCode>hwh</stationCode><stationName>HOWRAH JN</stationName><arrivalTime>04:40</arrivalTime><departureTime>Destination</departureTime><day>2</day><halt /><distance>502</distance><latitude>22.584108</latitude><longitude>88.341202</longitude><isHalting>true</isHalting></TrainScheduleItem></TrainRecord>	<TrainDetails><Provider>IndianRailways</Provider><TrainName>PURI HWH SF SPL</TrainName><TrainNumber>02838</TrainNumber><TrainAttributes><isPantryAvailable>false</isPantryAvailable><isCateringAvailable>false</isCateringAvailable><hasPrepaidTaxiService>false</hasPrepaidTaxiService><hasPrepaidAutoService>false</hasPrepaidAutoService><ClassesAvailable /><RakeShareTrainNumbers /><DaysRunning><Day>Friday</Day></DaysRunning><CoachComposition /></TrainAttributes></TrainDetails></Train>
